id,category_id,name,district,address,latitude,longitude,work_time,price,phone_number,image_url,page_url,description
1,8,해창양복점,중구,중구 남대문로7길 33,37.56379583,126.980017,,유료,02-776-1667,https://upload.wikimedia.org/wikipedia/commons/thumb/b/bf/Inside_of_haechang_bespoke_tailor.jpg/800px-Inside_of_haechang_bespoke_tailor.jpg,,서울미래유산
2,8,한영양복점,중구,중구 퇴계로20길 2,37.55971637,126.9854347,,유료,02-2266-0870,https://img.khan.co.kr/news/2017/12/03/l_2017120201000215800011504.webp,,서울미래유산
3,8,상동교회(구 새로나백화점),중구,중구 남대문로 30,37.56083481,126.9790477,,무료,,https://img.khan.co.kr/news/2020/03/23/l_2020032301002959900240628.jpg,,서울미래유산
4,6,라 칸티나,중구,중구 을지로 19,37.56630645,126.9799571,,유료,02-777-2580,https://mblogthumb-phinf.pstatic.net/MjAxOTAyMjJfNDcg/MDAxNTUwNzk5MTc1NzM5.Lhmz2cMmrMsjfz4oWBwiN4Oh3A6y6NfiHmp-aQn0KrMg.sGcz9JN29WsmmYqIqoEtnBYWP8aSblJWN5fES1Bw4ewg.JPEG.roaltlf/04.%EB%9D%BC%EC%B9%B8%ED%8B%B0%EB%82%98.jpg?type=w420,,서울미래유산
5,8,남대문시장,중구,중구 남대문시장4길 21,37.55918636,126.9776537,,유료,02-753-2805,https://lh6.googleusercontent.com/proxy/1ADRZFhsuFWwrgAXJOy_0j68BsGbHm-v4I385dfvBboOzpLaVwhY_l0foPLYcbEuty69vlBMYx0_4HXpC726KTvxsRJ_s12O6UMYSx57MEofyJc,,서울미래유산
6,8,홍대 앞 서교 365,마포구,마포구 홍익로3길 1,37.55426481,126.9224272,,무료,,https://futureheritage.seoul.go.kr/HeritageImg/heritage/2013291/jpg/2013291_001.jpg,,서울미래유산
7,8,경춘선 폐철도노선,노원구,노원구 공릉로55길 88 인근,37.63204326,127.0679518,,무료,,https://cdn.emetro.co.kr/data2/content/image/2020/11/01/.cache/512/20201101500226.jpg,,서울미래유산
8,8,연남동 기사식당 거리,마포구,서울특별시 마포구 연남로 25,37.56189807,126.9219039,,무료,,https://futureheritage.seoul.go.kr/HeritageImg/heritage/20171016174124_01.png,,서울미래유산
9,8,서울화력발전소(당인리발전소),마포구,마포구 토정로 56,37.54394733,126.9196472,,무료,,https://i.namu.wiki/i/6ooMiWfD1zopoLbiJrajytB8qlYC13W-XPjKbAoNmmnVPSFFifmeembJT8feesdee8GtFEyQjZT4nXMvEAWmzg.webp,,서울미래유산
10,8,남대문 지하보도,중구,중구 세종대로 50,37.56092735,126.9762484,,무료,,https://mediahub.seoul.go.kr/wp-content/uploads/editor/images/000215/DSC02518.jpg,,서울미래유산
11,8,남대문교회,중구,중구 퇴계로 6,37.55600486,126.9745814,,무료,02-753-6343,https://futureheritage.seoul.go.kr/HeritageImg/heritage/2013045/jpg/2013045_001.jpg,,서울미래유산
12,8,서울역 고가도로,중구,중구 통일로 1 일대,37.55605818,126.9721159,,무료,,https://futureheritage.seoul.go.kr/HeritageImg/heritage/20171016154214_01.png,,서울미래유산
13,1,서울역광장,용산구,용산구 한강대로 405,37.5548376,126.9717326,,무료,,https://www.sisa-news.com/data/photos/20180833/art_153414717394_620abb.jpg,,서울미래유산
14,8,서울풍물시장,동대문구,동대문구 천호대로4길 21,37.57271319,127.0255029,,유료,02-2232-3367,https://minio.nculture.org/amsweb-opt/multimedia_assets/46/27584/12098/c/27584-full-size.jpg,,서울미래유산
15,3,청계천 고가도로 존치 기념물,성동구,서울특별시 성동구 왕십리도선동 291-2,37.57022304,127.0278037,,무료,,https://mblogthumb-phinf.pstatic.net/MjAyMTEyMzBfMTQ0/MDAxNjQwODQxODQyMzc3.ARxclt6UiGZcYrhZ_64_pxOL42qAcQJVY2Q9xYwqiaMg.MGSR4io060CdGz2MizyxoIF5hEeW7qRgRRjPo5bK3WAg.JPEG.mismatch55/20211222%EF%BC%BF155046.jpg?type=w800,,서울미래유산
16,8,동대문패션타운,중구,중구 장충단로 263,37.56811569,127.0084727,,유료,,https://futureheritage.seoul.go.kr/HeritageImg/heritage/2013077/jpg/2013077_001.jpg,,서울미래유산
17,8,청계천 헌책방거리,중구,중구 청계천로 274 평화시장 내,37.56942586,127.0080476,,무료,,https://dimg.donga.com/ugc/CDB/SHINDONGA/Article/5d/ba/2e/51/5dba2e510db3d2738de6.jpg,,서울미래유산
18,8,신평화시장,중구,중구 청계천로 298,37.56945382,127.0110696,,유료,02-2253-0714,https://images.chosun.com/resizer/Zl4G-6GEFMdTB5CqpQlYX767wbg=/616x0/smart/cloudfront-ap-northeast-1.images.arcpublishing.com/chosun/S3BU74OGQVD7PFKRSKOGIFKPLU.jpg,,서울미래유산
19,3,윤극영 가옥,강북구,강북구 인수봉로84길 5,37.64647106,127.0108817,,무료,,https://mediahub.seoul.go.kr/uploads/mediahub/2023/02/QyAiaxrXdhMjmCTkXznJwLiImuJfFYCk.JPG,,서울미래유산
20,8,국립 4.19민주묘지,강북구,강북구 4.19로8길 17,37.64839067,127.0090713,,무료,02-996-0419,https://cphoto.asiae.co.kr/listimglink/1/2021033108244157854_1617146682.jpg,,서울미래유산
21,8,이마트 창동점,도봉구,도봉구 노해로65길 4,37.65163612,127.0466993,,유료,,https://image.edaily.co.kr/images/Photo/files/NP/S/2017/11/PS17111900028.jpg,,서울미래유산
22,8,남정현 가옥,도봉구,도봉구 도봉로109길 19-4,37.64671275,127.0319622,,무료,,https://enews.dobong.go.kr/images/newshome/edupia/202008/202008_img6_9.jpg,,서울미래유산
23,3,함석헌 가옥,도봉구,도봉구 도봉로123길 33-6,37.65296162,127.0347964,,무료,,https://kid.chosun.com/site/data/img_dir/2021/12/19/2021121901083_1.jpg,,서울미래유산
24,6,독다방(구 독수리다방),서대문구,서대문구 연세로 36,37.55878392,126.9372403,,유료,,https://futureheritage.seoul.go.kr/HeritageImg/heritage/2014015/jpg/2014015_001.jpg,,서울미래유산
25,6,미네르바,서대문구,서대문구 명물길 18,37.55768899,126.9378519,,유료,02-3147-1327,https://mblogthumb-phinf.pstatic.net/MjAyMTAxMTlfMjI5/MDAxNjExMDM4ODY2MDE1.3k1ggH7XhKYK_S3ixB_tQ0N81KWkVnsoWpUJiDRVTqMg.LC-bfIfGetR0QGQ7612fAc6EuMM_I5fjJkyKt5sYzfIg.JPEG.cinca01/KakaoTalk_20210119_152954616_15.jpg?type=w800,,서울미래유산
26,4,공씨책방,서대문구,서울특별시 서대문구 신촌로 55-2,37.5568761,126.932749,,무료,02-336-3058,https://mediahub.seoul.go.kr/wp-content/uploads/editor/images/000343/%EC%84%9C%EC%9A%B8%EB%AF%B8%EB%9E%98%EC%9C%A0%EC%82%B06_1.jpg,,서울미래유산
27,4,홍익문고,서대문구,서대문구 연세로 2,37.55578538,126.9370438,,무료,02-392-2020,https://mediahub.seoul.go.kr/wp-content/uploads/editor/images/000343/%EC%84%9C%EC%9A%B8%EB%AF%B8%EB%9E%98%EC%9C%A0%EC%82%B03.jpg,,서울미래유산
28,2,세실극장,중구,중구 세종대로19길 16,37.56672262,126.976533,,유료,02-751-1500,https://img0.yna.co.kr/etc/inner/KR/2017/12/29/AKR20171229045400005_01_i_P4.jpg,,서울미래유산
29,2,삼일로 창고극장,중구,중구 삼일대로9길 12,37.56347814,126.9879846,,유료,02-3789-9640,https://cdn.mhns.co.kr/news/photo/202202/521031_631079_2346.jpg,,서울미래유산
30,2,허리우드극장,종로구,종로구 삼일대로 428,37.57276352,126.9879025,,유료,02-3672-4232,https://mblogthumb-phinf.pstatic.net/MjAxOTExMjBfMjA0/MDAxNTc0MjU5MjQwNDc1.PQGy4rk8382hfgJcrLSdGD8eX3ogNR30MQHfoX9j-cwg.SKgtwDDXethhVNcu6zV0G2Fp6-f9x5zk3x27_MSBrvwg.JPEG.glimyeo/%ED%97%88%EB%A6%AC%EC%9A%B0%EB%93%9C-1.jpg?type=w800,,서울미래유산
31,2,정동극장,중구,중구 정동길 43,37.56593364,126.9728444,,유료,02-751-1500,https://img.seoul.co.kr//img/upload/2017/09/13/SSI_20170913171249.jpg,,서울미래유산
32,8,한신옹기,용산구,서울 용산구 신흥로 7,37.53915265,126.9865042,,유료,02-794-3687,https://img.seoul.co.kr/img/upload/2018/11/14/SSI_20181114172129_O2.jpg,,서울미래유산
33,8,해방촌 108계단,용산구,용산구 신흥로36길 일대,37.5416204,126.9873653,,무료,,https://lh4.googleusercontent.com/5QY3kMmGEm9g264Zyy0Tv44DKl91yqyPZkDXFC0jycWksf16Q0PaRcURFzX4Ia42L-d2DEvX4IyupZ8YRBkRpZNargJ-snODVxMzHqdstWguLfg5QuDHffo4eVAvpGaIwUP9DlMN,,서울미래유산
34,8,해방촌,용산구,용산구 신흥로11나길 22 일대,37.54391854,126.9854718,,무료,,https://futureheritage.seoul.go.kr/HeritageImg/heritage/2013283/jpg/2013283_001.jpg,,서울미래유산
35,4,포린북스토어,용산구,용산구 녹사평대로 208,37.53624637,126.9872269,,무료,02-793-8249,https://newsimg.hankookilbo.com/2015/12/23/201512232094003656_2.jpg,,서울미래유산
36,8,이태원 앤틱 가구거리,용산구,용산구 보광로 90,37.53119777,126.9956344,,무료,,https://korean.visitseoul.net/comm/getImage?srvcId=POST&parentSn=2051&fileTy=POSTTHUMB&fileNo=1,,서울미래유산
37,8,금성부동산,영등포구,영등포구 63로 45,37.52135273,126.9373261,,유료,02-782-1100,https://www.ydptoday.com/news/photo/202302/15969_16824_09.jpg,,서울미래유산
38,8,윤중제,영등포구,영등포구 여의동로,37.51778585,126.9371645,,무료,,https://futureheritage.seoul.go.kr/HeritageImg/heritage/20171017093959_01.jpg,,서울미래유산
39,8,국회의사당,영등포구,영등포구 의사당대로 1,37.53291197,126.9164039,,무료,02-6788-2114,https://www.seoulilbo.com/news/photo/202108/504295_303761_1431.jpg,,서울미래유산
40,1,여의도공원,영등포구,서울특별시 영등포구 여의도동 여의공원로 68 여의도공원관리사무소,37.52680882,126.9222841,,무료,02-761-4078,https://dimg.donga.com/wps/NEWS/IMAGE/2021/01/05/104767478.1.jpg,,서울미래유산
41,3,여의도 지하벙커,영등포구,영등포구 국제금융로 (앞도로의 중앙화단),37.52213586,126.9306624,,무료,02-2124-8800,https://news.seoul.go.kr/safe/files/2015/10/560cf103d5a864.85505133.jpg,,서울미래유산
42,8,한국거래소,영등포구,영등포구 여의나루로 76,37.52291203,126.9280414,,무료,,https://futureheritage.seoul.go.kr/HeritageImg/heritage/2013180/jpg/2013180_001.jpg,,서울미래유산
43,6,문화옥,중구,중구 창경궁로 62-5,37.56811419,126.9983972,,유료,02-2265-0322,https://mblogthumb-phinf.pstatic.net/MjAyMjA3MDlfNDYg/MDAxNjU3MzY5NzI5MDY5.Rc1VJ-zJ72juk0o0e3by1r2uCaT9iojR639kLk3D8A0g.21LDrdBebjw52U0s89Ty6qTXM4VUELUKjGiZOUlY99gg.JPEG.feather9311/IMG_3771.jpg?type=w800,,서울미래유산
44,6,우래옥,중구,중구 창경궁로 62-29,37.56821852,126.9987145,,유료,02-2265-0151,https://mblogthumb-phinf.pstatic.net/MjAxODA0MjhfMTY4/MDAxNTI0OTA4NzExMDUz.VBWdH-gvG4D4JLG8PirrEvpCRWJaEiNVbzRbaBjzc9Ug.83N-vDAapODrkNHHADdto2DQM_fbvWYOAMg-CY1BSTkg.JPEG.eumjeongoh/2013201_015.jpg?type=w800,,서울미래유산
45,8,관수동 명패골목,종로구,종로구 종로18길 22 일대,37.56927909,126.9907268,,무료,,https://futureheritage.seoul.go.kr/HeritageImg/heritage/2013015/jpg/2013015_001.jpg,,서울미래유산
46,1,베를린 광장,중구,중구 삼일대로 363,37.56715654,126.9870523,,무료,,https://futureheritage.seoul.go.kr/HeritageImg/heritage/2013110/jpg/2013110_001.jpg,,서울미래유산
47,8,31빌딩(구 삼일로빌딩),종로구,종로구 청계천로 85,37.56863139,126.9871504,,무료,,https://cphoto.asiae.co.kr/listimglink/1/2020112309425325153_1606092173.jpg,,서울미래유산
48,8,관철동의 도시조직,종로구,종로구 종로12길 14 일대,37.56944805,126.9855843,,무료,,https://futureheritage.seoul.go.kr/HeritageImg/heritage/2013016/jpg/2013016_001.jpg,,서울미래유산
49,3,보신각타종,종로구,종로구 종로 54,37.56976739,126.9836776,,무료,,https://photo.sentv.co.kr/photo/news/2021/01/04/1609720744.png,,서울미래유산
50,3,우정총국 회화나무,중구,중구 퇴계로37길 일대,37.55844666,126.9763337,,무료,,https://futureheritage.seoul.go.kr/HeritageImg/heritage/20171017092719_01.jpg,,서울미래유산
51,8,인사동 한옥밀집지역,종로구,종로구 인사동14길 24-1 일대,37.57496483,126.9855074,,무료,,https://mediahub.seoul.go.kr/wp-content/uploads/2020/07/664a292f7b848946f04cf28dc7a3f3e4.jpg,,서울미래유산
52,6,선천집,종로구,종로구 인사동길14길 5,37.57219111,126.9869491,,유료,02-734-1970,https://img.khan.co.kr/news/2018/08/13/l_2018081301001422200115541.webp,,서울미래유산
53,6,카페 귀천,종로구,종로구 인사동14길 14,37.57478726,126.984893,,유료,02-3210-2288,https://mediahub.seoul.go.kr/wp-content/uploads/editor/images/000357/%EC%82%AC%EC%A7%84_4.jpg,,서울미래유산
54,3,통인화랑,종로구,종로구 인사동길 32,37.57358312,126.9859214,,무료,02-733-4867,https://img.seoul.co.kr//img/upload/2020/06/03/SSI_20200603165219.jpg,,서울미래유산
55,8,구하산방,종로구,종로구 인사동5길 11,37.57265299,126.9856575,,유료,02-732-9895,https://mblogthumb-phinf.pstatic.net/MjAyMjAxMTFfMTg2/MDAxNjQxOTEyNTExMjU0.FycWn7sz4ySMtDqoxZlcnpdFxNEuq0T6p_9eRZZNYx4g.ai6tIi45H85MU2zEcmUZaIim6gASi8ppc3_TM-JYfKUg.JPEG.lka0125/20220110%EF%BC%BF135317.jpg?type=w800,,서울미래유산
56,6,이문설농탕,종로구,종로구 우정국로 38-13,37.57276142,126.983898,,유료,02-733-6526,https://futureheritage.seoul.go.kr/HeritageImg/heritage/2013214/jpg/2013214_003.jpg,,서울미래유산
57,8,수도약국,종로구,종로구 인사동길 40,37.57404352,126.9851386,,유료,02-732-3336,https://kid.chosun.com/site/data/img_dir/2021/11/10/2021111002862_2.jpg,,서울미래유산
58,8,"NH농협은행 종로금융센터(구 조선일보,조선중앙일보 사옥)",종로구,종로구 우정국로 38,37.57235249,126.9834654,,무료,02-733-7001,https://mblogthumb-phinf.pstatic.net/MjAyMzA3MDNfNDYg/MDAxNjg4Mzc2NDY4NTU5.AMbXMpZznivtSM0nj5GbgvHlmGDUT0Za6U8KbWPemvsg.l97WlcfzUQhiUQjDIwZmTNxJQ9mR0GDGZCMiGm71quUg.JPEG.euphoria98/%EB%86%8D%ED%98%91.jpg?type=w800,,서울미래유산
59,4,통문관,종로구,종로구 인사동길 55-1,37.5749008,126.9836674,,무료,02-734-4092,https://img.seoul.co.kr//img/upload/2020/06/03/SSI_20200603165311.jpg,,서울미래유산
60,6,이태준 달밤의 산실(수연산방),성북구,성북구 성북로 26길 8,37.59505307,126.9948358,,유료,02-764-1736,https://img.hani.co.kr/imgdb/resize/2016/0812/147089295599_20160812.JPG,,서울미래유산
61,6,쌍다리 식당,성북구,성북구 성북로23길 4  ,37.59349872,126.9956881,,유료,02-743-0325,https://d2u3dcdbebyaiu.cloudfront.net/uploads/atch_img/780/568bbfff9abd9a718bc490ff043fdf3c_res.jpeg,,서울미래유산
62,8,선잠제향,성북구,성북구 성북동 64-1 (선잠단지),37.59360709,126.9994083,,무료,,https://archive.sb.go.kr/isbcc/home/u/item/image/3624/1.do;jsessionid=1361CF472F140A76ED73EE4AD3D9CEC7,,서울미래유산
63,6,성북동 국시집,성북구,성북구 창경궁로43길 9,37.58842775,127.0043041,,유료,02-762-1924,https://archive.sb.go.kr/isbcc/home/u/item/image/8185/1.do;jsessionid=AC29ACC00B5DC66393467A5FA04E0856,,서울미래유산
64,6,나폴레옹 과자점,서울시,서울시 성북구 성북로 7,37.58890002,127.0050617,,유료,02-742-7421,https://mediahub.seoul.go.kr/wp-content/uploads/2018/12/832442ee3601a1fc14c5b94b26599ab9.jpg,,서울미래유산
65,8,성수목욕탕,성동구,성동구 성덕정19길 11,37.53757432,127.0565053,,유료,,https://img.seoul.co.kr/img/upload/2020/06/29/SSI_20200629213526_O2.jpg,,서울미래유산
66,8,서울경찰기마대,성동구,성동구 성수이로7길 17,37.54107786,127.0538197,,무료,02-700-2479,https://mediahub.seoul.go.kr/wp-content/uploads/2017/12/8c86324119f267df98ff7918832909ec.jpg,,서울미래유산
67,8,구두제조업(성수동일대),성동구,성동구 아차산로 113 일대,37.5446931,127.0569339,,무료,,https://futureheritage.seoul.go.kr/HeritageImg/heritage/2013021/JPG/2013021_001.jpg,,서울미래유산
68,3,한양대학교 박물관,성동구,성동구 왕십리로 222-1,37.55858154,127.0457157,,무료,02-2220-1394,https://futureheritage.seoul.go.kr/HeritageImg/heritage/20210928165322_2020022_001_%25ED%2595%259C%25EC%2596%2591%25EB%258C%2580%25ED%2595%2599%25EA%25B5%2590%25EB%25B0%2595%25EB%25AC%25BC%25EA%25B4%2580%25EC%2599%25B8%25EA%25B4%2580%25EC%25B8%25A1%25EB%25A9%25B41.jpg,,서울미래유산
69,8,도림동 성당,영등포구,영등포구 도영로 22길 22,37.51054733,126.9013865,,무료,02-833-9439,https://mblogthumb-phinf.pstatic.net/MjAxODA3MzBfNjAg/MDAxNTMyOTM1ODQ3OTQ2.55Bmvp7uF0YZg-xbGXzCKkQSjBqIl7sgkFuG7Y8vfaog.G32TSFWh8oDGvzKb0vUgItsL_TscAGpjHj6eq0GA1OEg.JPEG.makim7637/1532935840358.jpg?type=w800,,서울미래유산
70,8,수정여관,영등포구,영등포구 경인로77가길 11,37.51177367,126.8924898,,유료,,https://mblogthumb-phinf.pstatic.net/20160417_41/yogolmok_1460899429586jlmkV_JPEG/Q24C1928.jpg?type=w800,,서울미래유산
71,8,1차 금속제조업 (문래동영단주택단지일대),영등포구,영등포구 도림로141길,37.51384858,126.8918865,,무료,,https://mblogthumb-phinf.pstatic.net/MjAyMDA4MTJfMjE0/MDAxNTk3MjA5NzE2NDkw.0wI8zbrq4tD4ks6IvZhEMp2JKtE_z97SPApXlM6-UYIg.5gULlC2spdbPA1LoSeHFBh_9y-AsJyRW0bJR0QLvgxwg.PNG.hs_99/7.png?type=w800,,서울미래유산
72,3,OB맥주 담금솥,영등포구,영등포구 신길로 275 (영등포공원 내),37.51612662,126.9121264,,무료,,https://mblogthumb-phinf.pstatic.net/MjAyMjA3MjZfNjkg/MDAxNjU4ODA5MjA2NzQ2.8zHn5pycFPYzUxZpo-w7WR7S4D15knXCuoV2sMRpovEg.exiNKLH1vUaqxgusXMphcimeNIQTxxGu82eL_UmNG4gg.JPEG.roaltlf/12.%EC%98%81%EB%93%B1%ED%8F%AC%EA%B3%B5%EC%9B%90%28%EB%8B%B4%EA%B8%88%EC%86%A5%29.jpg?type=w420,,서울미래유산
73,1,서울역광장,용산구,용산구 한강대로 405,37.5548376,126.9717326,,무료,,https://www.sisa-news.com/data/photos/20180833/art_153414717394_620abb.jpg,,서울미래유산
74,1,서울광장,중구,중구 태평로1가 54-3,37.56608178,126.9776906,,무료,,https://edu.chosun.com/site/data/img_dir/2022/09/06/2022090601714_1.png,,서울미래유산
75,2,세실극장,중구,중구 세종대로19길 16,37.56672262,126.976533,,유료,02-751-1500,https://img0.yna.co.kr/etc/inner/KR/2017/12/29/AKR20171229045400005_01_i_P4.jpg,,서울미래유산
76,2,세종문화회관,종로구,종로구 세종대로 175,37.57184786,126.9761683,,유료,02-399-1000,https://mediahub.seoul.go.kr/wp-content/uploads/editor/images/000215/DSC07292.jpg,,서울미래유산
77,8,옛 부민관,중구,중구 세종대로 125,37.56756983,126.9765445,,무료,,https://t1.daumcdn.net/cfile/tistory/2019F70D4BB2D53F19,,서울미래유산
78,3,도로원표(칭경기념비전 내),종로구,종로구 세종로 142-3,37.57051286,126.9775907,,무료,,https://futureheritage.seoul.go.kr/HeritageImg/heritage/2013065/jpg/2013065_001.jpg,,서울미래유산
79,3,세종로 이순신 동상,종로구,종로구 세종로,37.58019281,126.9767782,,무료,,https://edu.chosun.com/site/data/img_dir/2022/10/14/2022101402547_1.jpg,,서울미래유산
80,8,통의동 동척 관사,종로구,종로구 자하문로4길 21,37.57750388,126.9733637,,무료,,https://img.hani.co.kr/imgdb/resize/2012/0114/132642919501_20120114.JPG,,서울미래유산
81,8,통의동 보안여관,종로구,종로구 효자로 33,37.57911789,126.9736303,,무료,02-720-8409,https://newsimg.hankookilbo.com/2015/02/01/201502011416297286_1.jpg,,서울미래유산
82,8,서촌 한옥밀집지역,종로구,종로구 자하문로7길 13 일대,37.57838609,126.9708736,,무료,,https://img.seoul.co.kr//img/upload/2017/05/31/SSI_20170531172244.jpg,,서울미래유산
83,3,이상의 집,종로구,종로구 자하문로7길 18,37.57864864,126.9708629,,무료,,https://mblogthumb-phinf.pstatic.net/MjAxODAzMTRfMjgx/MDAxNTIxMDMyNjU4Mzgw.w9_hDM9L6yxevTaMaLb_R0aUB0TjHjFxRfJgU_G0XQcg.crP80F5ZB7duo3pnaZ7bDRSyfuCPurZiQ9zDqvnZi9Ag.JPEG.rose3274/DSC02162.JPG?type=w800,,서울미래유산
84,8,통인시장,종로구,종로구 필운대로6길 6,37.5806581,126.9690097,,유료,02-722-0911,https://modo-phinf.pstatic.net/20170415_292/1492211881037zl3XO_JPEG/mosaqfZsFu.jpeg?type=w1100,,서울미래유산
85,8,윤동주하숙집터,종로구,종로구 옥인길 57,37.58145853,126.9656952,,무료,02-2148-2155,https://futureheritage.seoul.go.kr/HeritageImg/adminCoursePhoto/45583cee8d4ecbd1d3e7282b35fbfed6.jpg,,서울미래유산
86,8,배화여고 캠벨 기념관,종로구,종로구 필운대로1길 34,37.57954401,126.9672919,,무료,,https://upload.wikimedia.org/wikipedia/commons/3/32/Paiwha_Girls%27_High_School_Campbell_Memorial_Hall.jpg,,서울미래유산
87,6,수연산방,성북구,성북구 성북로26길 8,37.59505307,126.9948358,,유료,02-764-1736,https://img.hani.co.kr/imgdb/resize/2016/0812/147089295599_20160812.JPG,,서울미래유산
88,8,북정마을과 한양도성,성북구,성북구 성북로23길 132-3,37.59285848,126.9910291,,무료,,https://t1.daumcdn.net/place/821A31DAAA3C4950A37D28BAC28E09FA,,서울미래유산
89,6,삼청각,성북구,성북구 대사관로 3,37.59728217,126.9835263,,유료,02-765-3700,https://mblogthumb-phinf.pstatic.net/MjAxNzA5MTZfNjAg/MDAxNTA1NTQ3NTM5NTY4.ZAf72GsJ-pYxyOc2ZiIB8bS29hrDRibmBGxdB_Q3jkcg.tJjVsDTEuU5dKBe7RTesnSxi66xD1oyUZep-v0O4ijYg.JPEG.maxone1/KakaoTalk_20170913_112025826.jpg?type=w800,,서울미래유산
90,8,길상사(구 대원각),성북구,성북구 선잠로5길 68,37.59910942,126.9946522,,무료,02-3672-5945,https://archive.sb.go.kr/isbcc/home/u/item/image/4441.do;jsessionid=02ABBF21258E980D1E921A0F2FA983AF,,서울미래유산
91,3,간송미술관,성북구,성북구 성북로 102-11,37.59446244,126.9962385,,유료,02-744-7830,https://t1.daumcdn.net/place/B10F350B385544EA976F11629AF26C5C,,서울미래유산
92,8,최순우옛집,성북구,성북구 성북로15길 9,37.59297685,127.0003499,,무료,02-3675-3401,https://mediahub.seoul.go.kr/wp-content/uploads/editor/images/000299/%EC%B5%9C%EC%88%9C%EC%9A%B0_%EC%98%9B%EC%A7%91.jpg,,서울미래유산
93,3,만해한용운심우장,성북구,성북구 성북로29길 24,37.59362698,126.9916647,,무료,,https://upload.wikimedia.org/wikipedia/commons/e/e6/%EB%A7%8C%ED%95%B4_%ED%95%9C%EC%9A%A9%EC%9A%B4_%EC%8B%AC%EC%9A%B0%EC%9E%A5.jpg,,서울미래유산
94,8,이화동 벽화마을,종로구,종로구 이화장2길 33일대,37.57861171,127.0060453,,무료,,https://futureheritage.seoul.go.kr/HeritageImg/heritage/2013217/jpg/2013217_001.jpg,,서울미래유산
95,8,이화동 낙산 국민주택단지,종로구,종로구 낙산4길 49 일대,37.57800456,127.0071925,,무료,,https://t1.daumcdn.net/cfile/tistory/9919B63A5D14574325,,서울미래유산
96,1,마로니에공원,종로구,종로구 대학로 104,37.580334,127.0025153,,무료,02-2148-4158,https://t1.daumcdn.net/place/55EF2B323DD9488DB03B1C15DE1B7017,,서울미래유산
97,3,이화장,종로구,종로구 이화장1길 32,37.57834257,127.0064149,,무료,02-762-3171,https://futureheritage.seoul.go.kr/HeritageImg/adminCoursePhoto/7ef31927ba65d83dc649099efac0b694.jpg,,서울미래유산
98,2,아르코 예술극장,종로구,종로구 대학로8길 7,37.58118552,127.0029999,,유료,02-3668-0007,https://img.seoul.co.kr//img/upload/2016/11/29/SSI_20161129182632.jpg,,서울미래유산
99,6,학림다방,종로구,종로구 대학로 119,37.58193049,127.0016774,,유료,02-742-2877,https://minio.nculture.org/amsweb-opt/multimedia_assets/83/97438/108907/c/%EC%84%9C%EC%9A%B8-%ED%95%99%EB%A6%BC%EB%8B%A4%EB%B0%A9_%ED%95%99%EB%A6%BC%EB%8B%A4%EB%B0%A9-%EC%99%B8%EA%B4%80-%281%29_rev-medium-size.jpg,,서울미래유산
100,8,서울대학병원,종로구,종로구 대학로 103 (서울대학교 내 보건대학원),37.5812861,127.0011412,,유료,1588-5700,https://img.seoul.co.kr//img/upload/2020/08/10/SSI_20200810175936.jpg,,서울미래유산
101,3,공간건축(한식문화공간 이음),종로구,종로구 북촌로 18,37.57841064,126.9858387,,무료,,https://futureheritage.seoul.go.kr/HeritageImg/adminCoursePhoto/a5d8b5d6647fe5e2da570d4ce7670270.jpg,,서울미래유산
102,3,춘곡 고희동 가옥,종로구,종로구 창덕궁5길 40,37.58318551,126.9888849,,무료,,https://mediahub.seoul.go.kr/wp-content/uploads/2016/04/e036f0e07de645077f0ac3784e68485b.jpg,,서울미래유산
103,8,계동 48-12 건물군,종로구,계동길 100-8 일대,37.58172988,126.9872217,,무료,,https://futureheritage.seoul.go.kr/HeritageImg/heritage/2014004/jpg/2014004_001.jpg,,서울미래유산
104,8,북촌 한옥밀집지역,종로구,종로구 북촌로11가길 41 일대,37.5832659,126.9836436,,무료,,https://mediahub.seoul.go.kr/wp-content/uploads/2020/07/664a292f7b848946f04cf28dc7a3f3e4.jpg,,서울미래유산
105,3,경복궁,종로구,종로구 사직로 161,37.57590409,126.9768421,,유료,02-3700-3900,https://a.cdn-hotels.com/gdcs/production60/d893/3172bd6f-726c-4561-810f-deec13d17a6e.jpg?impolicy=fcrop&w=800&h=533&q=medium,,서울미래유산
106,3,기기국번사창,종로구,종로구 삼청로 118,37.58602521,126.9819436,,무료,,https://t1.daumcdn.net/place/557EB3525584404DAF4F090CC9571DB2,,서울미래유산
107,3,운현궁,종로구,종로구 삼일대로 464,37.57569679,126.9869814,,무료,02-766-9090,https://futureheritage.seoul.go.kr/HeritageImg/adminCoursePhoto/5e7fa040aa5e5e17ed368d5ea7637fef.jpg,,서울미래유산
108,3,종묘,종로구,종로구 종로 157,37.5731338,126.9948635,,유료,02-765-0195,https://heritage.unesco.or.kr/wp-content/uploads/2019/04/hd6_391_i1-1024x687.jpg,,서울미래유산
109,8,전태일 분신장소,중구,"중구 청계천로 274 (신당동평화시장A동,B동사이대로변)",37.56942586,127.0080476,,무료,,https://cdn.visitkorea.or.kr/img/call?cmd=VIEW&id=155b79db-31d9-4198-bd92-5cd9d5812604,,서울미래유산
110,8,창신동 봉제마을,종로구,종로구 창신5나길 17 일대,37.57442028,127.0110855,,무료,,https://futureheritage.seoul.go.kr/HeritageImg/heritage/2013246/jpg/2013246_001.jpg,,서울미래유산
111,8,평화시장,중구,중구 장충단로13길 20,37.56873455,127.0076665,,무료,02-2265-3531,https://mblogthumb-phinf.pstatic.net/MjAyMzAzMTFfMjI5/MDAxNjc4NTAxNjAwODYw.-7rvhf4fb55e3oWOmE7M0PS8BzpYwo0X9GAPCnL8rIEg.1s5q0kbN_qbHamKTd59lv-wP7js8LbtDMzqQ3mCqs1Eg.JPEG.suk4408/061A6853.jpg?type=w800,,서울미래유산
112,3,보신각,종로구,종로구 종로 54,37.56976739,126.9836776,,무료,,https://i.namu.wiki/i/bUFyyHqb6wMYnrV-PlAw3M6g-U5en9ZD3X2RCnQDmniD110oQwkzzLE_JOvXCKooIVz398h5RJi1DzufDuZyjA.webp,,서울미래유산
113,3,보신각 앞 지하철 수준점,종로구,종로구 종로 54,37.56976739,126.9836776,,무료,,https://upload.wikimedia.org/wikipedia/commons/a/a0/%EB%B3%B4%EC%8B%A0%EA%B0%81_%EC%95%9E_%EC%A7%80%ED%95%98%EC%B2%A0_%EC%88%98%EC%A4%80%EC%A0%90.jpg,,서울미래유산
114,8,피맛골,종로구,종로구 돈화문로5길 32 일대,37.570813,126.9902548,,무료,02-763-2999,https://img.seoul.co.kr/img/upload/2016/12/06/SSI_20161206181505_O2.jpg,,서울미래유산
115,3,성수대교 참사 희생자 위령탑,성동구,성동구 성수동1가 685-571,37.53981075,127.0392738,,무료,,https://img2.yna.co.kr/photo/yna/YH/2021/09/29/PYH2021093000340000400_P4.jpg,,서울미래유산
116,8,국립서울현충원,동작구,동작구 현충로 210,37.49982365,126.9784084,,무료,1522-1555,https://img.seoul.co.kr//img/upload/2019/12/04/SSI_20191204172011.jpg,,서울미래유산
117,8,63한화생명빌딩,영등포구,영등포구 63로 50,37.51966416,126.9399093,,무료,1833-7001,https://t1.daumcdn.net/place/3B7582D2CCE64C75868C0E0E8918A092,,서울미래유산
118,3,구로공단 노동자생활 체험관 (순이의 집),금천구,금천구 벚꽃로44길 17,37.48280569,126.8836373,,무료,,https://www.geumcheon.go.kr/site/portal/images/contents/cts2595_img01.jpg,,서울미래유산
119,3,삼풍참사위령탑,서초구,서초구 양재동 234,37.46784029,127.0374164,,무료,,https://news.seoul.go.kr/culture/files/2016/12/585339eca17878.98119020-1024x684.jpg,,서울미래유산
120,8,서울고속버스터미널,서초구,서초구 신반포로 194,37.50643574,127.0068344,,무료,1688-4700,https://cdn.thekpm.com/news/photo/202108/94248_73751_0906.jpg,,서울미래유산
121,3,경교장,종로구,종로구 새문안로 29,37.56886773,126.9678127,,무료,02-735-2038,https://t1.daumcdn.net/place/D6EF0CEDDE29449BB63C775986DA8582,,서울미래유산
122,4,4.19혁명기념도서관,종로구,종로구 새문안로 17,37.56744493,126.9676938,,무료,02-730-4190,https://mblogthumb-phinf.pstatic.net/MjAyMzAxMDdfMjk3/MDAxNjczMDgyNDIzODIy.RRaBEQPPzSmXojnqVKqLYw2PgklSu2uwUXRNbay2Djwg.UrDe7WPKahUZxkHLtmd1fdcOQLUBdH2vHAqIgqS0txIg.JPEG.kimjho3o/IMG_1217.JPG?type=w800,,서울미래유산
123,8,옛 부민관,중구,중구 세종대로 125,37.56756983,126.9765445,,무료,,https://img.khan.co.kr/news/2021/08/03/2021080301000348700030181.jpg,,서울미래유산
124,1,서울광장,중구,중구 태평로1가 54-3,37.56608178,126.9776906,,무료,,https://edu.chosun.com/site/data/img_dir/2022/09/06/2022090601714_1.png,,서울미래유산
125,3,환구단,중구,중구 소공로 106,37.56448413,126.9801845,,무료,,https://i.namu.wiki/i/livR1P25EtG6RpatZgQEICLWbhigDcSsOa6d1uIFcLWjf2obq4Ea202rKMlHqVA2Y5j7QBWPS8u25LuCqE0l4Q.webp,,서울미래유산
126,2,세실극장,중구,중구 세종대로19길 16,37.56672262,126.976533,,유료,02-751-1500,https://img0.yna.co.kr/etc/inner/KR/2017/12/29/AKR20171229045400005_01_i_P4.jpg,,서울미래유산
127,3,덕수궁 중명전,중구,중구 정동길 41-11,37.56672527,126.9725356,,유료,02-752-5366,https://t1.daumcdn.net/place/A2A9603CA3B14B1FB70FB682FFFE1347,,서울미래유산
128,8,서울종합방재센터(옛 안기부 청사),중구,서울특별시 중구 예장동 산3-13,37.55831134,126.9917709,,무료,,https://upload.wikimedia.org/wikipedia/commons/8/8f/%EC%84%9C%EC%9A%B8%EC%A2%85%ED%95%A9%EB%B0%A9%EC%9E%AC%EC%84%BC%ED%84%B0_%EB%82%B4%EC%99%B8%EB%B6%80_%EC%82%AC%EC%A7%843.JPG,,서울미래유산
129,8,남산원 본관,중구,중구 소파로2길 31,37.55789993,126.9893153,,무료,,https://futureheritage.seoul.go.kr/HeritageImg/heritage/2013051/jpg/2013051_001.jpg,,서울미래유산
130,3,한양공원 비,중구,중구 소파로 57,37.55517797,126.9828561,,무료,,https://img.seoul.co.kr//img/upload/2017/06/28/SSI_20170628165023.jpg,,서울미래유산
131,8,조선신궁터,용산구,용산구 후암동 30-65,37.55341695,126.9826912,,무료,,https://lh6.googleusercontent.com/proxy/1ADRZFhsuFWwrgAXJOy_0j68BsGbHm-v4I385dfvBboOzpLaVwhY_l0foPLYcbEuty69vlBMYx0_4HXpC726KTvxsRJ_s12O6UMYSx57MEofyJc,,서울미래유산
132,8,옛 어린이회관,중구,중구 소파로 46,37.5545492,126.9812833,,무료,,https://playfoursquare.s3.amazonaws.com/pix/vdXG-Bxx3uml6cZ2TQerxt78k3vmWbFdbREZCOdO_yE.jpg,,서울미래유산
133,8,회현 제2시민아파트,중구,중구 퇴계로 8길 101,37.55564872,126.9814925,,무료,,https://blog.kakaocdn.net/dn/sZAd6/btrQlIbW4wj/SMgldKItKNkV4KopDgJ0tk/img.jpg,,서울미래유산
134,8,남산육교,중구,중구 남창동 235-1,37.55771694,126.9763414,,무료,,https://mblogthumb-phinf.pstatic.net/MjAyMTA0MTNfNzQg/MDAxNjE4MzE5OTcyMDQ4.LyYaJucUXhZT8mVi3mIXEgdzqlWpdlRbVVGer_opaWwg._N1ioIpbFFb3pqoSmT9l72m5ZikHZ6vnKHb-cVgXYIcg.JPEG.hanbam/DSC01750-966.JPG?type=w800,,서울미래유산
135,2,국립극장,중구,중구 장충단로 59,37.55199491,126.9992673,,유료,02-2280-4114,https://mediahub.seoul.go.kr/uploads/mediahub/2021/02/ce805b691b334d1489ac2dd40afbfc12.jpg,,서울미래유산
136,8,옛 타워호텔(반얀트리 클럽 스파 서울),중구,중구 장충단로 60,37.55007101,127.0004975,,유료,,https://www.ahstatic.com/photos/b1v3_ho_00_p_1024x768.jpg,,서울미래유산
137,8,자유센터(한국자유총연맹),중구,중구 장충단로 72,37.55163836,127.0025232,,무료,02-2238-1037,https://futureheritage.seoul.go.kr/HeritageImg/adminCoursePhoto/5d77005e3d43a759da5810be1046a517.jpg,,서울미래유산
138,3,광희문,중구,중구 퇴계로 344,37.56435512,127.0096641,,무료,02-3369-5882,https://i.namu.wiki/i/zobEzKp5TMM5rNZPkoWCeAZSzD42XIPnXvCKylCjau7-77o0gJJycPUxDE79W0wA48-AAfiHRVCukMJN3ZLnVw.webp,,서울미래유산
139,8,장충동 족발골목,중구,서울 중구 장충단로 174,37.56024934,127.0058927,,무료,,https://futureheritage.seoul.go.kr/HeritageImg/heritage/2013229/jpg/2013229_001.jpg,,서울미래유산
140,3,박문사 터와 장충단,중구,중구 동호로 249,37.55750551,127.0079529,,무료,,https://search.pstatic.net/common/?src=http%3A%2F%2Fblogfiles.naver.net%2FMjAxODExMjdfMjIg%2FMDAxNTQzMjk1Mjg4NTAw.47Twk-IrEbGI_fHoAFHDURpHeC1JSZO_E0w9ybuokHgg.ukgNht2RmJaTzWemlrMJXDUm7ow3OrORq2aS4EnMNzQg.JPEG.marusot%2F%25B9%25DA%25B9%25AE%25BB%25E7%25BA%25BB%25B4%25E7HakubunZi_hondo.jpg&type=sc960_832,,서울미래유산
141,1,장충체육관,중구,중구 동호로 241,37.55864066,127.0066775,,유료,02-2128-2800,https://mediahub.seoul.go.kr/uploads/mediahub/2021/02/fb9afaaf87bf4557b636636a0a48741b.jpg,,서울미래유산
142,1,장충테니스장,중구,서울 중구 장충동2가 산14-68 장충테니스장,37.55292375,127.0010072,,유료,010-7425-8634,https://futureheritage.seoul.go.kr/HeritageImg/heritage/2013232/jpg/2013232_001.jpg,,서울미래유산
143,1,장충리틀야구장,중구,장충동2가 197,37.55767842,127.0040569,,유료,,https://futureheritage.seoul.go.kr/HeritageImg/heritage/20171017143708_01.jpg,,서울미래유산
144,8,동대문패션타운,중구,중구 장충단로 263,37.56811569,127.0084727,,유료,,https://futureheritage.seoul.go.kr/common/cmmThumbFileDown.do?fileNm=2013077_001_%EC%99%B8%EB%B6%80_resize.jpg&type=t,,서울미래유산
145,8,"동대문종합시장(A,B,C동)",종로구,종로구 종로 266 내,37.57070649,127.0073287,,유료,,http://futureheritage.seoul.go.kr/HeritageImg/heritage/2013077/jpg/2013077_001_thumb.jpg,,서울미래유산
146,8,동대문신발종합상가(A동),종로구,종로구 청계천로 295,37.57006671,127.0106705,,유료,,http://futureheritage.seoul.go.kr/HeritageImg/heritage/2013075/jpg/2013075_001_thumb.jpg,,서울미래유산
147,1,어린이대공원,광진구,광진구 능동로 216,37.5520117,127.0787724,,무료,,http://futureheritage.seoul.go.kr/HeritageImg/heritage/20140326154405_%25EB%258F%2599%25EB%258C%2580%25EB%25AC%25B8%25EC%258B%25A0%25EB%25B0%259C%25EC%25A2%2585%25ED%2595%25A9%25EC%2583%2581%25EA%25B0%2580A%25EB%258F%2599%25EC%25B8%25A1%25EB%25A9%25B4.jpg,"공원입장료: 무료, 놀이동산 이용권 : 유료",서울미래유산
148,5,청룡열차,광진구,광진구 능동로 216,37.5520117,127.0787724,,유료,,http://futureheritage.seoul.go.kr/HeritageImg/heritage/20171016172402_07_thumb.jpg,,서울미래유산
149,3,어린이대공원 꿈마루,광진구,광진구 능동로 216,37.5520117,127.0787724,,무료,,https://futureheritage.seoul.go.kr/HeritageImg/multimedia/20230918113922_%25EC%25B2%25AD%25EB%25A3%25A1%25EC%2597%25B4%25EC%25B0%25A8_001_%25EC%2596%25B4%25EB%25A6%25B0%25EC%259D%25B4%25EB%258C%2580%25EA%25B3%25B5%25EC%259B%2590.jpg,,서울미래유산
150,8,지하철 경복궁 역사,종로구,종로구 사직로 130 지하,37.57536753,126.9733218,,무료,,http://futureheritage.seoul.go.kr/HeritageImg/heritage/20210928162611_2020012_016_%25EC%2596%25B4%25EB%25A6%25B0%25EC%259D%25B4%25EB%258C%2580%25EA%25B3%25B5%25EC%259B%2590%25EA%25BF%2588%25EB%25A7%2588%25EB%25A3%25A83%25EC%25B8%25B5%25ED%2586%25B5%25EB%25A1%259C2_thumb.jpg,,서울미래유산
151,3,서울의 중심점 표지석,종로구,종로구 인사동5길 25,37.57209731,126.9853924,,무료,,http://futureheritage.seoul.go.kr/HeritageImg/multimedia/20200113133156_%25EC%25A7%2580%25ED%2595%2598%25EC%25B2%25A0%25EA%25B2%25BD%25EB%25B3%25B5%25EA%25B6%2581%25EC%2597%25AD%25EC%2582%25AC_%25EC%25A1%25B0%25EA%25B0%25811.JPG,,서울미래유산
152,8,광화문 지하보도,종로구,종로구 세종대로 175,37.57184786,126.9761683,,무료,,http://futureheritage.seoul.go.kr/HeritageImg/heritage/20140326134250_%25EC%2584%259C%25EC%259A%25B8%25EC%259D%2598%25EC%25A4%2591%25EC%258B%25AC%25EC%25A0%2590%25ED%2591%259C%25EC%25A7%2580%25EC%2584%259D%25EC%259D%25B4%25EC%259E%2588%25EB%258A%2594%25ED%2595%2598%25EB%2582%2598%25EB%25A1%259C%25EB%25B9%258C%25EB%2594%25A9%25EC%25A0%2584%25EA%25B2%25BD.jpg,,서울미래유산
153,3,대한민국역사박물관,종로구,종로구 세종대로 198,37.57371361,126.9783394,,무료,,http://futureheritage.seoul.go.kr/HeritageImg/heritage/20150202180937_SNAG-0170.jpg,,서울미래유산
154,1,선유도공원,영등포구,영등포구 선유로 343,37.54238323,126.9018193,,무료,,http://futureheritage.seoul.go.kr/HeritageImg/heritage/20140326132210_1.JPG,,서울미래유산
155,8,허바허바사진관,강남구,강남구 테헤란로7길 12,37.50001528,127.0309846,,유료,02-553-3030,http://futureheritage.seoul.go.kr/HeritageImg/multimedia/20220622094317_S_2013156_%25EC%25B6%2594_007%25EC%2584%25A0%25EC%259C%25A0%25EB%258F%2584%25EA%25B3%25B5%25EC%259B%2590%25EB%2582%25B4%25EB%25B6%25801.jpg,,서울미래유산
156,3,예화랑,강남구,강남구 가로수길 73,37.52287898,127.0222179,,무료,,http://futureheritage.seoul.go.kr/HeritageImg/heritage/20131210150426_1.jpg,,서울미래유산
157,5,국기원,강남구,강남구 테헤란로7길 32,37.50251563,127.0303865,,무료,,http://futureheritage.seoul.go.kr/HeritageImg/multimedia/20200108172808_%25EC%2598%2588%25ED%2599%2594%25EB%259E%2591%25EC%2599%25B8%25EB%25B6%2580%25EC%25A0%2584%25EA%25B2%25BD.jpg,,서울미래유산
158,1,"월드컵공원(노을공원, 하늘공원)",마포구,마포구 월드컵로 251 일대,37.56590524,126.8964649,,무료,,http://futureheritage.seoul.go.kr/HeritageImg/heritage/20140326131225_IMG_5271.JPG,,서울미래유산
159,8,마포 석유비축기지,마포구,마포구 증산로 (매봉산 일대),37.56913965,126.8949577,,무료,,http://futureheritage.seoul.go.kr/HeritageImg/heritage/20140409115354_%25ED%2581%25AC%25EA%25B8%25B0%25EB%25B3%2580%25ED%2599%2598_SAM_1086.JPG,,서울미래유산
160,2,세종문화회관,종로구,종로구 세종대로 175,37.57184786,126.9761683,,유료,,http://futureheritage.seoul.go.kr/HeritageImg/multimedia/20220621091348_S2013087_%25EC%25B6%2594_001%25EB%25A7%2588%25ED%258F%25AC%25EC%2584%259D%25EC%259C%25A0%25EB%25B9%2584%25EC%25B6%2595%25EA%25B8%25B0%25EC%25A7%2580%25EC%2599%25B8%25EA%25B4%2580.jpg,,서울미래유산
161,8,통인시장,종로구,종로구 필운대로6길 6,37.5806581,126.9690097,,유료,,https://modo-phinf.pstatic.net/20170415_292/1492211881037zl3XO_JPEG/mosaqfZsFu.jpeg?type=w1100,,서울미래유산
162,3,세종로 세종대왕 동상,종로구,종로구 세종로,37.58019281,126.9767782,,무료,,http://futureheritage.seoul.go.kr/HeritageImg/heritage/2013164/jpg/2013164_001_thumb.jpg,,서울미래유산
163,1,서울광장,중구,중구 태평로1가 54-3,37.56608178,126.9776906,,무료,,https://edu.chosun.com/site/data/img_dir/2022/09/06/2022090601714_1.png,,서울미래유산
164,3,세종로 이순신 동상,종로구,종로구 세종로,37.58019281,126.9767782,,무료,,https://edu.chosun.com/site/data/img_dir/2022/10/14/2022101402547_1.jpg,,서울미래유산
165,8,가리봉시장,구로구,구로구 우마길 17,37.48140325,126.8885741,,유료,,http://futureheritage.seoul.go.kr/HeritageImg/heritage/20150203210658_SNAG-0257.jpg,,서울미래유산
166,5,구로공단 노동자생활 체험관 (순이의 집),금천구,금천구 벚꽃로44길 17,37.48280569,126.8836373,,무료,,https://www.geumcheon.go.kr/site/portal/images/contents/cts2595_img01.jpg,,서울미래유산
167,8,디지털단지오거리,금천구,금천구 가산동 127-34,37.47927846,126.8898811,,무료,,https://futureheritage.seoul.go.kr/HeritageImg/multimedia/20230918173716_%25EB%2594%2594%25EC%25A7%2580%25ED%2584%25B8%25EB%258B%25A8%25EC%25A7%25805%25EA%25B1%25B0%25EB%25A6%25AC_001.jpg,,서울미래유산
168,8,수출의 다리,금천구,금천구 가산동 371-31,37.47681518,126.8843064,,무료,,http://futureheritage.seoul.go.kr/HeritageImg/heritage/20150203204957_SNAG-0251.jpg,,서울미래유산
169,8,가산디지털단지역(옛 가리봉역),금천구,금천구 벚꽃로 309,37.48159574,126.8825595,,무료,,https://futureheritage.seoul.go.kr/HeritageImg/multimedia/20230918105645_%25EA%25B0%2580%25EC%2582%25B0%25EB%258B%25A4%25EC%25A7%2580%25ED%2584%25B8%25EB%258B%25A8%25EC%25A7%2580%25EC%2597%25AD_013_%25EC%258A%25A4%25EB%25A7%2588%25ED%258A%25B8G%25EB%25B0%25B8%25EB%25A6%25AC.jpg,,서울미래유산
170,8,잠수교,용산구,용산구 서빙고로 ~ 서초구 반포대로,37.5149249,126.9964458,,무료,,http://futureheritage.seoul.go.kr/HeritageImg/heritage/20140409110721_%25EC%259E%25A0%25EC%2588%2598%25EA%25B5%2590%25EC%25A0%2584%25EA%25B2%25BD.jpg,,서울미래유산
171,8,서울고속버스터미널,서초구,서초구 신반포로 194,37.50643574,127.0068344,,무료,,https://cdn.thekpm.com/news/photo/202108/94248_73751_0906.jpg,,서울미래유산
172,5,서울특별시교육청 교육연구정보원(구 남산어린이회관),중구,중구 소파로 46,37.5545492,126.9812833,,무료,,https://playfoursquare.s3.amazonaws.com/pix/vdXG-Bxx3uml6cZ2TQerxt78k3vmWbFdbREZCOdO_yE.jpg,,서울미래유산
173,8,남산육교,중구,중구 남창동 235-1,37.55771694,126.9763414,,무료,,https://mblogthumb-phinf.pstatic.net/MjAyMTA0MTNfNzQg/MDAxNjE4MzE5OTcyMDQ4.LyYaJucUXhZT8mVi3mIXEgdzqlWpdlRbVVGer_opaWwg._N1ioIpbFFb3pqoSmT9l72m5ZikHZ6vnKHb-cVgXYIcg.JPEG.hanbam/DSC01750-966.JPG?type=w800,,서울미래유산
174,1,축구(송파여성축구장),송파구,서울특별시 송파구 방이동88,37.52103148,127.1161651,"월, 금 10:00~12:00",유료,,https://images.unsplash.com/photo-1551958219-acbc608c6377?auto=format&fit=crop&q=80&w=1170&ixlib=rb-4.0.3&ixid=M3wxMjA3fDB8MHxwaG90by1wYWdlfHx8fGVufDB8fHx8fA%3D%3D,,참가규모: 30명/정확한 가격은 해당 지자체에 문의
175,1,기초체력(노들나루공원),동작구,서울특별시 동작구 노량진로 247,37.51453063,126.9524302,화 10:00~11:00,유료,02-820-9435,https://images.unsplash.com/photo-1487956382158-bb926046304a?auto=format&fit=crop&q=80&w=1171&ixlib=rb-4.0.3&ixid=M3wxMjA3fDB8MHxwaG90by1wYWdlfHx8fGVufDB8fHx8fA%3D%3D,www.dongjak.go.kr/healthcare/main/main.do,참가규모: 30명/정확한 가격은 해당 지자체에 문의
176,1,생활체육(한우리지역아동센터),관악구,서울특별시 관악구 낙성대역14가길 7 2층,37.47329411,126.9643356,목 15:00~15:40/ 목 15:40~16:20 ,유료,02-884-1026,https://images.unsplash.com/photo-1487956382158-bb926046304a?auto=format&fit=crop&q=80&w=1171&ixlib=rb-4.0.3&ixid=M3wxMjA3fDB8MHxwaG90by1wYWdlfHx8fGVufDB8fHx8fA%3D%3D,,참가규모: 15명/정확한 가격은 해당 지자체에 문의
177,1,요가(사당롯데캐슬 아파트),동작구,"서울특별시 동작구 사당로27길 190, 106동 지하2층",37.49095711,126.9715874,"수, 금 11:00~11:45",유료,,https://images.unsplash.com/photo-1544367567-0f2fcb009e0b?auto=format&fit=crop&q=80&w=1220&ixlib=rb-4.0.3&ixid=M3wxMjA3fDB8MHxwaG90by1wYWdlfHx8fGVufDB8fHx8fA%3D%3D,,참가규모: 15명/정확한 가격은 해당 지자체에 문의
178,1,축구(노들나루공원잔디구장),동작구,서울특별시 동작구 노량진로 247,37.51453063,126.9524302,"목, 금 10:00~12:00",유료,,https://images.unsplash.com/photo-1551958219-acbc608c6377?auto=format&fit=crop&q=80&w=1170&ixlib=rb-4.0.3&ixid=M3wxMjA3fDB8MHxwaG90by1wYWdlfHx8fGVufDB8fHx8fA%3D%3D,,참가규모: 20명/정확한 가격은 해당 지자체에 문의
179,1,생활체조(사당분소),동작구,서울특별시 동작구 사당로 253-3,37.4836744,126.9758707,금 13:00~13:40/ 금 13:40~14:20 ,유료,02-820-9644,https://img.freepik.com/free-photo/men-and-women-warm-up-before-and-after-exercising_1150-23003.jpg?w=1060&t=st=1698655137~exp=1698655737~hmac=fbcb731e03e38413e76c25c99f1c393cde5bbd5247d2dd3ec385c04c355d58fe,,참가규모: 20명/정확한 가격은 해당 지자체에 문의
180,1,"스트레칭, 근력운동(상도어울마당)",동작구,서울특별시 동작구 성대로 180,37.49925547,126.9403722,화 14:00~14:45/ 목 14:00~14:45/ 화 15:00~15:40/ 목 15:00~15:40 ,유료,,https://images.unsplash.com/photo-1517963879433-6ad2b056d712?auto=format&fit=crop&q=80&w=1170&ixlib=rb-4.0.3&ixid=M3wxMjA3fDB8MHxwaG90by1wYWdlfHx8fGVufDB8fHx8fA%3D%3D,www.dongjak.go.kr/healthcare/main/main.do,참가규모: 20명/정확한 가격은 해당 지자체에 문의
181,1,"헬스,필라테스(대림1동 주민자치센터)",영등포구,서울특별시 영등포구 디지털로 441 대림제1동 사무소 체육관3층,37.49545723,126.905842,월 09:50~10:30 / 월 10:30~11:10,유료,02-2670-1379,https://img.freepik.com/free-photo/woman-with-trainer-practising-yoga_1303-14852.jpg?w=1060&t=st=1698656220~exp=1698656820~hmac=0f3694f5ee6513e12f8ef054465674fec618e47e056bd9d7756ec1dadd3de5ea,,참가규모: 15명/정확한 가격은 해당 지자체에 문의
182,1,헬스(신길7동주민센터),영등포구,서울특별시 영등포구 여의대방로43길 10,37.50639203,126.9215141,수 10:00~10:40/ 수 10:40~11:20,유료,02-2670-1365,https://images.unsplash.com/photo-1517963879433-6ad2b056d712?auto=format&fit=crop&q=80&w=1170&ixlib=rb-4.0.3&ixid=M3wxMjA3fDB8MHxwaG90by1wYWdlfHx8fGVufDB8fHx8fA%3D%3D,,참가규모: 20명/정확한 가격은 해당 지자체에 문의
183,1,"스트레칭,헬스(영등포구자치회관헬스장)",영등포구,서울특별시 영등포구 국회대로44길4,37.52538799,126.9036383,화 09:30~10:10/ 화 10:10~10:40,유료,02-2068-8810,https://images.unsplash.com/photo-1517963879433-6ad2b056d712?auto=format&fit=crop&q=80&w=1170&ixlib=rb-4.0.3&ixid=M3wxMjA3fDB8MHxwaG90by1wYWdlfHx8fGVufDB8fHx8fA%3D%3D,,참가규모: 20명/정확한 가격은 해당 지자체에 문의
184,1,"스트레칭,헬스(대림3동헬스장)",영등포구,서울특별시 영등포구 대림로 197,37.49831352,126.8980344,월 09:00~09:40/ 목 09:00~09:40,유료,02-843-5536,https://images.unsplash.com/photo-1517963879433-6ad2b056d712?auto=format&fit=crop&q=80&w=1170&ixlib=rb-4.0.3&ixid=M3wxMjA3fDB8MHxwaG90by1wYWdlfHx8fGVufDB8fHx8fA%3D%3D,,참가규모: 10명/정확한 가격은 해당 지자체에 문의
185,1,생활체육(모랫말꿈터),영등포구,서울특별시 영등포구 도영로11길 11,37.51062509,126.8969571,수 12:50~13:30/ 수 13:30~14:10,유료,,https://images.unsplash.com/photo-1487956382158-bb926046304a?auto=format&fit=crop&q=80&w=1171&ixlib=rb-4.0.3&ixid=M3wxMjA3fDB8MHxwaG90by1wYWdlfHx8fGVufDB8fHx8fA%3D%3D,,참가규모: 15명/정확한 가격은 해당 지자체에 문의
186,1,"스트레칭, 헬스(도림동자치센터 헬스장)",영등포구,서울특별시 영등포구 도영로7길 10,37.5094934,126.8959996,수 09:20~10:10/ 수 10:10~10:40 ,유료,02-832-1780,https://images.unsplash.com/photo-1517963879433-6ad2b056d712?auto=format&fit=crop&q=80&w=1170&ixlib=rb-4.0.3&ixid=M3wxMjA3fDB8MHxwaG90by1wYWdlfHx8fGVufDB8fHx8fA%3D%3D,,참가규모: 20명/정확한 가격은 해당 지자체에 문의
187,1,"스트레칭, 헬스(신길3동주민센터 헬스장)",영등포구,서울특별시 영등포구 신길로41라길 13-8,37.50729867,126.9077496,화 09:50~10:30/ 화 10:30~11:10,유료,02-846-9697,https://images.unsplash.com/photo-1517963879433-6ad2b056d712?auto=format&fit=crop&q=80&w=1170&ixlib=rb-4.0.3&ixid=M3wxMjA3fDB8MHxwaG90by1wYWdlfHx8fGVufDB8fHx8fA%3D%3D,,참가규모: 20명/정확한 가격은 해당 지자체에 문의
188,1,"스트레칭,생활체조(양평동헬스장)",영등포구,서울특별시 영등포구 선유서로 34길 10 4층,37.5268695,126.8874353,월 09:50~10:30/ 월 10:30~11:10 ,유료,,https://images.unsplash.com/photo-1517963879433-6ad2b056d712?auto=format&fit=crop&q=80&w=1170&ixlib=rb-4.0.3&ixid=M3wxMjA3fDB8MHxwaG90by1wYWdlfHx8fGVufDB8fHx8fA%3D%3D,,참가규모: 20명/정확한 가격은 해당 지자체에 문의
189,1,헬스(대림1동 주민자치센터),영등포구,서울특별시 영등포구 디지털로 441 대림제1동 사무소 체육관3층,37.49545723,126.905842,수 09:50~10:30/ 수 10:30~11:10 ,유료,02-2670-1379,https://images.unsplash.com/photo-1517963879433-6ad2b056d712?auto=format&fit=crop&q=80&w=1170&ixlib=rb-4.0.3&ixid=M3wxMjA3fDB8MHxwaG90by1wYWdlfHx8fGVufDB8fHx8fA%3D%3D,,참가규모: 20명/정확한 가격은 해당 지자체에 문의
190,1,배구(구현고등학교),구로구,서울특별시 구로구 경인로53가길 17,37.50228322,126.8744182,금 15:30~17:00,유료,02-2628-8916,https://images.unsplash.com/photo-1612872087720-bb876e2e67d1?auto=format&fit=crop&q=80&w=1307&ixlib=rb-4.0.3&ixid=M3wxMjA3fDB8MHxwaG90by1wYWdlfHx8fGVufDB8fHx8fA%3D%3D,http://guhyun.sen.hs.kr/,참가규모: 20명/정확한 가격은 해당 지자체에 문의
191,1,뉴스포츠(항동초),구로구,서울특별시 구로구 연동로 178(항동),37.47709214,126.8241895,"화,수 13:30~15:00",유료,02-480-3771,https://img.freepik.com/free-photo/sports-tools_53876-138077.jpg?w=1060&t=st=1698657803~exp=1698658403~hmac=00859a66d1826f1d0158cc6967a418d2f3d17963e36f9a4ae3ce9aad1d510e73,,참가규모: 75명/정확한 가격은 해당 지자체에 문의
192,1,뉴스포츠(고척초),구로구,서울특별시 구로구 경서로 31,37.50099779,126.8568624,금 14:00~15:30,유료,02-2618-6212,https://img.freepik.com/free-photo/sports-tools_53876-138077.jpg?w=1060&t=st=1698657803~exp=1698658403~hmac=00859a66d1826f1d0158cc6967a418d2f3d17963e36f9a4ae3ce9aad1d510e73,,참가규모: 40명/정확한 가격은 해당 지자체에 문의
193,1,뉴스포츠(온수초),구로구,서울특별시 구로구 부일로 893,37.49351062,126.8266616,화 13:10~14:30,유료,02-2684-4902,https://img.freepik.com/free-photo/sports-tools_53876-138077.jpg?w=1060&t=st=1698657803~exp=1698658403~hmac=00859a66d1826f1d0158cc6967a418d2f3d17963e36f9a4ae3ce9aad1d510e73,http://onsu.sen.es.kr/,참가규모: 55명/정확한 가격은 해당 지자체에 문의
194,1,뉴스포츠(구로초),구로구,서울특별시 구로구 디지털로 27길 76,37.4847046,126.8902678,월 13:10~14:40,유료,02-859-0501,https://img.freepik.com/free-photo/sports-tools_53876-138077.jpg?w=1060&t=st=1698657803~exp=1698658403~hmac=00859a66d1826f1d0158cc6967a418d2f3d17963e36f9a4ae3ce9aad1d510e73,http://guro.sen.es.kr/,참가규모: 54명/정확한 가격은 해당 지자체에 문의
195,1,헬스(G밸리보건지소),구로구,"서울특별시 구로구 디지털로 243, 213호(구로동, 지하이시티)",37.48199214,126.8923489,"화,목 10:00~11:30",유료,02-860-8174,https://images.unsplash.com/photo-1517963879433-6ad2b056d712?auto=format&fit=crop&q=80&w=1170&ixlib=rb-4.0.3&ixid=M3wxMjA3fDB8MHxwaG90by1wYWdlfHx8fGVufDB8fHx8fA%3D%3D,https://pf.kakao.com/_XJaxdK,참가규모: 120명/정확한 가격은 해당 지자체에 문의
196,1,뉴스포츠(고산초),구로구,서울특별시 구로구 중앙로 6,37.49932523,126.8653501,월 13:30~15:00,유료,02-2617-0591,https://img.freepik.com/free-photo/sports-tools_53876-138077.jpg?w=1060&t=st=1698657803~exp=1698658403~hmac=00859a66d1826f1d0158cc6967a418d2f3d17963e36f9a4ae3ce9aad1d510e73,http://kohsan.sen.es.kr/,참가규모: 40명/정확한 가격은 해당 지자체에 문의
197,1,배구(구로구민체육센터),구로구,서울특별시 구로구 고척로45길 39,37.50658124,126.8532759,월 10:00~12:00/ 수 10:00~12:00/ 금 10:00~12:00,유료,02-2681-9595,https://images.unsplash.com/photo-1612872087720-bb876e2e67d1?auto=format&fit=crop&q=80&w=1307&ixlib=rb-4.0.3&ixid=M3wxMjA3fDB8MHxwaG90by1wYWdlfHx8fGVufDB8fHx8fA%3D%3D,https://www.gurosisul.or.kr/mod.asp?m=business&s=b01,참가규모: 20명/정확한 가격은 해당 지자체에 문의
198,1,스트레칭(우장산동주민센터),강서구,서울특별시 강서구 우현로 34,37.54828859,126.8418363,금 14:00~14:50,유료,02-2600-7745,https://images.unsplash.com/photo-1552196563-55cd4e45efb3?auto=format&fit=crop&q=80&w=1326&ixlib=rb-4.0.3&ixid=M3wxMjA3fDB8MHxwaG90by1wYWdlfHx8fGVufDB8fHx8fA%3D%3D,,참가규모: 15/정확한 가격은 해당 지자체에 문의
199,1,스트레칭(가양2동주민센터),강서구,서울특별시 강서구 허준로 93,37.56739892,126.8512712,금 10:00~10:50,유료,02-2600-7808,https://images.unsplash.com/photo-1552196563-55cd4e45efb3?auto=format&fit=crop&q=80&w=1326&ixlib=rb-4.0.3&ixid=M3wxMjA3fDB8MHxwaG90by1wYWdlfHx8fGVufDB8fHx8fA%3D%3D,,참가규모: 15/정확한 가격은 해당 지자체에 문의
200,1,스트레칭(등촌9복지관),강서구,서울특별시 강서구 화곡로63가길 92-(등촌3동 704) 주공9단지,37.5619516,126.8502091,목 15:10~16:40,유료,02-2658-4129,https://images.unsplash.com/photo-1552196563-55cd4e45efb3?auto=format&fit=crop&q=80&w=1326&ixlib=rb-4.0.3&ixid=M3wxMjA3fDB8MHxwaG90by1wYWdlfHx8fGVufDB8fHx8fA%3D%3D,,참가규모: 15명/정확한 가격은 해당 지자체에 문의
201,1,헬스(등촌2동주민센터),강서구,서울특별시 강서구 등촌로143,37.54265827,126.8625035,화 10:00~11:00,유료,02-2600-7386,https://images.unsplash.com/photo-1517963879433-6ad2b056d712?auto=format&fit=crop&q=80&w=1170&ixlib=rb-4.0.3&ixid=M3wxMjA3fDB8MHxwaG90by1wYWdlfHx8fGVufDB8fHx8fA%3D%3D,,참가규모: 10명/정확한 가격은 해당 지자체에 문의
202,1,헬스(우장산동주민센터),강서구,서울특별시 강서구 우현로 34,37.54828859,126.8418363,화 15:00~16:00/ 금 15:00~16:00,유료,02-2600-7732,https://images.unsplash.com/photo-1517963879433-6ad2b056d712?auto=format&fit=crop&q=80&w=1170&ixlib=rb-4.0.3&ixid=M3wxMjA3fDB8MHxwaG90by1wYWdlfHx8fGVufDB8fHx8fA%3D%3D,,참가규모: 10명/정확한 가격은 해당 지자체에 문의
203,1,헬스(공항동주민센터),강서구,서울특별시 강서구 송정로 45,37.55878281,126.8100743,수14:00~15:00/ 목 10:00~11:20/ 금 10:00~11:20 ,유료,02-2600-7935,https://images.unsplash.com/photo-1517963879433-6ad2b056d712?auto=format&fit=crop&q=80&w=1170&ixlib=rb-4.0.3&ixid=M3wxMjA3fDB8MHxwaG90by1wYWdlfHx8fGVufDB8fHx8fA%3D%3D,,참가규모: 25명/정확한 가격은 해당 지자체에 문의
204,1,헬스(염창동주민센터),강서구,서울특별시 강서구 양천로67가길 63,37.55377136,126.8709657,월10:00~11:00/ 수 10:00~11:20/ 금14:00~15:00,유료,02-2600-7306,https://images.unsplash.com/photo-1517963879433-6ad2b056d712?auto=format&fit=crop&q=80&w=1170&ixlib=rb-4.0.3&ixid=M3wxMjA3fDB8MHxwaG90by1wYWdlfHx8fGVufDB8fHx8fA%3D%3D,,참가규모: 16명/정확한 가격은 해당 지자체에 문의
205,1,헬스(등촌2동주민센터헬스장),강서구,서울특별시 강서구 등촌로 143,37.54265827,126.8625035,월 10:00~10:40/ 수 09:30~10:40/ 수 10:40~11:50,유료,02-2600-7395,https://images.unsplash.com/photo-1517963879433-6ad2b056d712?auto=format&fit=crop&q=80&w=1170&ixlib=rb-4.0.3&ixid=M3wxMjA3fDB8MHxwaG90by1wYWdlfHx8fGVufDB8fHx8fA%3D%3D,,참가규모: 10명/정확한 가격은 해당 지자체에 문의
206,1,헬스(가양3동주민센터),강서구,서울특별시 강서구 허준로 202,37.56108697,126.8605577,목 14:00~15:00,유료,02-2600-7865,https://images.unsplash.com/photo-1517963879433-6ad2b056d712?auto=format&fit=crop&q=80&w=1170&ixlib=rb-4.0.3&ixid=M3wxMjA3fDB8MHxwaG90by1wYWdlfHx8fGVufDB8fHx8fA%3D%3D,,참가규모: 20명/정확한 가격은 해당 지자체에 문의
207,1,헬스(우장산주민센터),강서구,서울특별시 강서구 우현로 34?,37.54828859,126.8418363,수10:00~11:20금10;00~11:20,유료,02-2600-7745,https://images.unsplash.com/photo-1517963879433-6ad2b056d712?auto=format&fit=crop&q=80&w=1170&ixlib=rb-4.0.3&ixid=M3wxMjA3fDB8MHxwaG90by1wYWdlfHx8fGVufDB8fHx8fA%3D%3D,,참가규모: 20명/정확한 가격은 해당 지자체에 문의
208,1,헬스(가양2동주민센터),강서구,서울특별시 강서구 허준로 93,37.56739892,126.8512712,화 14:00~15:00,유료,02-2600-7825,https://images.unsplash.com/photo-1517963879433-6ad2b056d712?auto=format&fit=crop&q=80&w=1170&ixlib=rb-4.0.3&ixid=M3wxMjA3fDB8MHxwaG90by1wYWdlfHx8fGVufDB8fHx8fA%3D%3D,,참가규모: 20명/정확한 가격은 해당 지자체에 문의
209,1,헬스(등촌3동주민센터),강서구,서울특별시?강서구 화곡로63길 96 등,37.55888771,126.8479185,월 14:00~15:20/목 10:00~11:20,유료,02-2600-7445,https://images.unsplash.com/photo-1517963879433-6ad2b056d712?auto=format&fit=crop&q=80&w=1170&ixlib=rb-4.0.3&ixid=M3wxMjA3fDB8MHxwaG90by1wYWdlfHx8fGVufDB8fHx8fA%3D%3D,,참가규모: 20명/정확한 가격은 해당 지자체에 문의
210,1,보디빌딩(화곡6동주민센터),강서구,서울특별시 강서구 화곡로312,37.55181666,126.8500765,금 10:00~11:20,유료,02-26007646,https://images.unsplash.com/photo-1526506118085-60ce8714f8c5?auto=format&fit=crop&q=80&w=1287&ixlib=rb-4.0.3&ixid=M3wxMjA3fDB8MHxwaG90by1wYWdlfHx8fGVufDB8fHx8fA%3D%3D,,참가규모: 20명/정확한 가격은 해당 지자체에 문의
211,1,보디빌딩(화곡3동주민센터),강서구,서울특별시 강서구 강서로33가길 17,37.54252631,126.8384139,수 15:00~16:30,유료,02-2600-7565,https://images.unsplash.com/photo-1526506118085-60ce8714f8c5?auto=format&fit=crop&q=80&w=1287&ixlib=rb-4.0.3&ixid=M3wxMjA3fDB8MHxwaG90by1wYWdlfHx8fGVufDB8fHx8fA%3D%3D,,참가규모: 20명/정확한 가격은 해당 지자체에 문의
212,1,보디빌딩(화곡4동주민센터),강서구,서울특별시 강서구 곰달래로57가길26,37.53480238,126.8607489,수 10:00~11:20,유료,02-2600-7604,https://images.unsplash.com/photo-1526506118085-60ce8714f8c5?auto=format&fit=crop&q=80&w=1287&ixlib=rb-4.0.3&ixid=M3wxMjA3fDB8MHxwaG90by1wYWdlfHx8fGVufDB8fHx8fA%3D%3D,,참가규모: 20명/정확한 가격은 해당 지자체에 문의
213,1,요가(등촌고등학교),강서구,서울특별시 강서구 공항대로39길 115,37.56294522,126.8450461,월 13:10~14:00 /목 09:10~10:00,유료,02-3665-6045,https://images.unsplash.com/photo-1544367567-0f2fcb009e0b?auto=format&fit=crop&q=80&w=1220&ixlib=rb-4.0.3&ixid=M3wxMjA3fDB8MHxwaG90by1wYWdlfHx8fGVufDB8fHx8fA%3D%3D,https://dch.sen.hs.kr/,참가규모: 20명/정확한 가격은 해당 지자체에 문의
214,1,"요가,헬스(화곡6동주민센터)",강서구,서울특별시 강서구 화곡로312,37.55181666,126.8500765,화 09:40~11:10,유료,02-2600-7665,https://images.unsplash.com/photo-1544367567-0f2fcb009e0b?auto=format&fit=crop&q=80&w=1220&ixlib=rb-4.0.3&ixid=M3wxMjA3fDB8MHxwaG90by1wYWdlfHx8fGVufDB8fHx8fA%3D%3D,,참가규모: 20명/정확한 가격은 해당 지자체에 문의
215,1,뉴스포츠(기쁜우리복지관 지하1층),강서구,서울특별시 강서구 허준로65,37.56927822,126.8488644,목 10:30~11:30,유료,02-3665-3831,https://img.freepik.com/free-photo/sports-tools_53876-138077.jpg?w=1060&t=st=1698657803~exp=1698658403~hmac=00859a66d1826f1d0158cc6967a418d2f3d17963e36f9a4ae3ce9aad1d510e73,http://www.gibbun.or.kr,참가규모: 10명/정확한 가격은 해당 지자체에 문의
216,1,족구(해누리족구장),양천구,서울특별시 양천구 안양천로 711,37.5115788,126.8724,"화, 목 10:30~11:30",유료,,https://images.unsplash.com/photo-1551958219-acbc608c6377?auto=format&fit=crop&q=80&w=1170&ixlib=rb-4.0.3&ixid=M3wxMjA3fDB8MHxwaG90by1wYWdlfHx8fGVufDB8fHx8fA%3D%3D,,참가규모: 15명/정확한 가격은 해당 지자체에 문의
217,1,"요가,헬스(우장산동주민센터)",강서구,서울특별시 강서구 우현로 34,37.54828859,126.8418363,월 09:40~11:20/ 금 09:40~11:20,유료,02-2600-7745,https://images.unsplash.com/photo-1544367567-0f2fcb009e0b?auto=format&fit=crop&q=80&w=1220&ixlib=rb-4.0.3&ixid=M3wxMjA3fDB8MHxwaG90by1wYWdlfHx8fGVufDB8fHx8fA%3D%3D,,참가규모: 20명/정확한 가격은 해당 지자체에 문의
218,1,헬스(목3동주민센터(헬스장)),양천구,서울특별시 양천구 목동중앙남로16나길 55,37.54474118,126.8644362,금 10:00~11:30,유료,02-2620-3980,https://images.unsplash.com/photo-1517963879433-6ad2b056d712?auto=format&fit=crop&q=80&w=1170&ixlib=rb-4.0.3&ixid=M3wxMjA3fDB8MHxwaG90by1wYWdlfHx8fGVufDB8fHx8fA%3D%3D,https://www.yangcheon.go.kr/dong/mok03/main.do,참가규모: 40명/정확한 가격은 해당 지자체에 문의
219,1,재활훈련/근력운동(두드림건강마음센터),양천구,서울특별시 양천구 등촌로 194,37.54703351,126.8631921,화 10:40~11:20,유료,02-2645-1941,https://images.unsplash.com/photo-1517963879433-6ad2b056d712?auto=format&fit=crop&q=80&w=1170&ixlib=rb-4.0.3&ixid=M3wxMjA3fDB8MHxwaG90by1wYWdlfHx8fGVufDB8fHx8fA%3D%3D,http://www.dodmhc.or.kr/,참가규모: 20명/정확한 가격은 해당 지자체에 문의
220,1,헬스&근력운동(G.X)(신월4동주민센터),양천구,서울특별시 양천구 오목로5길 34,37.52469581,126.8400811,"화10:00~11:30, 목 10:00~11:30",유료,2620-4115,https://images.unsplash.com/photo-1517963879433-6ad2b056d712?auto=format&fit=crop&q=80&w=1170&ixlib=rb-4.0.3&ixid=M3wxMjA3fDB8MHxwaG90by1wYWdlfHx8fGVufDB8fHx8fA%3D%3D,https://www.yangcheon.go.kr/dong/sinwol04/main.do,참가규모: 20명/정확한 가격은 해당 지자체에 문의
221,1,헬스&근력운동(G.X)(목4동주민센터),양천구,서울특별시 양천구 목동중앙로25(목동),37.53243314,126.8683948,"수 10:00~11:30, 금 10:00~11:30",유료,2620-4000,https://images.unsplash.com/photo-1517963879433-6ad2b056d712?auto=format&fit=crop&q=80&w=1170&ixlib=rb-4.0.3&ixid=M3wxMjA3fDB8MHxwaG90by1wYWdlfHx8fGVufDB8fHx8fA%3D%3D,https://www.yangcheon.go.kr/dong/mok04/main.do,참가규모: 20명/정확한 가격은 해당 지자체에 문의
222,1,탁구(한빛종합사회복지관),양천구,서울특별시 양천구 신월로11길 16,37.51907402,126.8402256,수 14:00~14:40/ 금 14:00~14:40/ 금 14:50~15:30,유료,02-2690-8762,https://images.unsplash.com/photo-1564518440696-ef272968778e?auto=format&fit=crop&q=80&w=1170&ixlib=rb-4.0.3&ixid=M3wxMjA3fDB8MHxwaG90by1wYWdlfHx8fGVufDB8fHx8fA%3D%3D,http://www.han-bit.or.kr/,참가규모: 15명/정확한 가격은 해당 지자체에 문의
223,1,탁구(목동종합사회복지관),양천구,서울특별시 양천구 목동중앙북로8길 104,37.54424009,126.8663764,월 14:00~14:40/ 월 14:50~15:30/ 금 16:00~16:40/ 금 16:50~17:30,유료,02-2651-2333,https://images.unsplash.com/photo-1564518440696-ef272968778e?auto=format&fit=crop&q=80&w=1170&ixlib=rb-4.0.3&ixid=M3wxMjA3fDB8MHxwaG90by1wYWdlfHx8fGVufDB8fHx8fA%3D%3D,http://sseoul.or.kr/,참가규모: 15명/정확한 가격은 해당 지자체에 문의
224,1,탁구(신정종합사회복지관),양천구,서울특별시 양천구 신정중앙로 36,37.52730285,126.8555308,월 16:00~16:40/ 월 16:50~17:30/ 수 16:00~16:40/ 수 16:50~17:30,유료,02-2651-2332,https://images.unsplash.com/photo-1564518440696-ef272968778e?auto=format&fit=crop&q=80&w=1170&ixlib=rb-4.0.3&ixid=M3wxMjA3fDB8MHxwaG90by1wYWdlfHx8fGVufDB8fHx8fA%3D%3D,http://sseoul.or.kr/,참가규모: 15명/정확한 가격은 해당 지자체에 문의
225,1,생활체조(아현건강증진센터),마포구,서울특별시 마포구 마포대로11길 44-81,37.55224172,126.9512368,월 13:30~14:30/ 수 13:30~14:30,유료,02-3153-9882,https://img.freepik.com/free-photo/men-and-women-warm-up-before-and-after-exercising_1150-23003.jpg?w=1060&t=st=1698655137~exp=1698655737~hmac=fbcb731e03e38413e76c25c99f1c393cde5bbd5247d2dd3ec385c04c355d58fe,,참가규모: 15명/정확한 가격은 해당 지자체에 문의
226,1,뉴스포츠(북아현방과후교실),서대문구,서울특별시 서대문구 충정로 52,37.56335057,126.9658861,월15:00~16:20/ 수15:00~16:20/ 금15:00~16:20,유료,02-364-3462,https://img.freepik.com/free-photo/sports-tools_53876-138077.jpg?w=1060&t=st=1698657803~exp=1698658403~hmac=00859a66d1826f1d0158cc6967a418d2f3d17963e36f9a4ae3ce9aad1d510e73,,참가규모: 25/정확한 가격은 해당 지자체에 문의
227,1,헬스(홍제천 일대),서대문구,서울특별시 서대문구 홍제천 일대,37.5919024,126.9421685,"월, 화, 수, 목 09:00~10:30/ 월, 수, 금 14:00~15:30",유료,02-335-7330,https://images.unsplash.com/photo-1517963879433-6ad2b056d712?auto=format&fit=crop&q=80&w=1170&ixlib=rb-4.0.3&ixid=M3wxMjA3fDB8MHxwaG90by1wYWdlfHx8fGVufDB8fHx8fA%3D%3D,,참가규모: 20/정확한 가격은 해당 지자체에 문의
228,1,경춘선 숲길 걷기 수업(경춘선숲길),노원구,서울특별시 노원구 동일로198가길 149,37.63039111,127.0670364,월 10:00~10:45/ 월 10:45~11:30/ 수 10:00~10:45/ 수 10:45~11:30/ 목 10:00~10:40/ 목 10:40~11:20/ 금 10:00~10:40/ 금 10:40~11:20,유료,,https://images.unsplash.com/photo-1487956382158-bb926046304a?auto=format&fit=crop&q=80&w=1171&ixlib=rb-4.0.3&ixid=M3wxMjA3fDB8MHxwaG90by1wYWdlfHx8fGVufDB8fHx8fA%3D%3D,,참가규모: 15/정확한 가격은 해당 지자체에 문의
229,1,헬스(오동생활체육공원),강북구,서울특별시 강북구 오패산로52라길 149,37.62080086,127.0344901,월수금 15:00~16:30,유료,02-989-3422,https://images.unsplash.com/photo-1517963879433-6ad2b056d712?auto=format&fit=crop&q=80&w=1170&ixlib=rb-4.0.3&ixid=M3wxMjA3fDB8MHxwaG90by1wYWdlfHx8fGVufDB8fHx8fA%3D%3D,,참가규모: 15/정확한 가격은 해당 지자체에 문의
230,1,축구(강북구민운동장),강북구,서울특별시 강북구 오현로 187-25,37.62942638,127.0379894,수 13:40~16:00,유료,,https://images.unsplash.com/photo-1551958219-acbc608c6377?auto=format&fit=crop&q=80&w=1170&ixlib=rb-4.0.3&ixid=M3wxMjA3fDB8MHxwaG90by1wYWdlfHx8fGVufDB8fHx8fA%3D%3D,,참가규모: 35명/정확한 가격은 해당 지자체에 문의
231,1,생활체조(래미안라센트아파트),성북구,서울특별시 성북구 종암로24가길 80,37.59931367,127.0392269,목 10:00~10:45,유료,02-917-1426,https://img.freepik.com/free-photo/men-and-women-warm-up-before-and-after-exercising_1150-23003.jpg?w=1060&t=st=1698655137~exp=1698655737~hmac=fbcb731e03e38413e76c25c99f1c393cde5bbd5247d2dd3ec385c04c355d58fe,,참가규모: 20명/정확한 가격은 해당 지자체에 문의
232,1,뉴스포츠(비전트리아동센터),성북구,서울특별시 성북구 장월로 28,37.60892923,127.0475321,월 16:00~16:40,유료,02-919-9290,https://img.freepik.com/free-photo/sports-tools_53876-138077.jpg?w=1060&t=st=1698657803~exp=1698658403~hmac=00859a66d1826f1d0158cc6967a418d2f3d17963e36f9a4ae3ce9aad1d510e73,,참가규모: 20명/정확한 가격은 해당 지자체에 문의
233,1,뉴스포츠(구립삼선동꿈나무키우미돌봄센터),성북구,서울특별시 성북구 보문로29길 101-3층,37.58573311,127.0133441,월 14:00~14:40,유료,,https://img.freepik.com/free-photo/sports-tools_53876-138077.jpg?w=1060&t=st=1698657803~exp=1698658403~hmac=00859a66d1826f1d0158cc6967a418d2f3d17963e36f9a4ae3ce9aad1d510e73,,참가규모: 20명/정확한 가격은 해당 지자체에 문의
234,1,생활체조(정릉 e편한세상아파트),성북구,서울특별시 성북구 북악산로 851,37.60025102,127.0183154,금 10:00~10:50,유료,02-914-1871,https://img.freepik.com/free-photo/men-and-women-warm-up-before-and-after-exercising_1150-23003.jpg?w=1060&t=st=1698655137~exp=1698655737~hmac=fbcb731e03e38413e76c25c99f1c393cde5bbd5247d2dd3ec385c04c355d58fe,,참가규모: 20명/정확한 가격은 해당 지자체에 문의
235,1,걷기운동(북한산둘레길),성북구,서울특별시 성북구 솔샘로25길 121-50,37.62095698,127.0068831,수 10:00~11:30/ 수 10:00~11:50,유료,02-3676-7330,https://images.unsplash.com/photo-1487956382158-bb926046304a?auto=format&fit=crop&q=80&w=1171&ixlib=rb-4.0.3&ixid=M3wxMjA3fDB8MHxwaG90by1wYWdlfHx8fGVufDB8fHx8fA%3D%3D,,참가규모: 30명/정확한 가격은 해당 지자체에 문의
236,1,걷기운동(북서울꿈의숲),성북구,서울특별시 강북구 월계로 173,37.62025446,127.0443247,금 10:00~11:20/ 금 10:00~11:30/ 금 10:00~11:50,유료,02-3676-7330,https://images.unsplash.com/photo-1487956382158-bb926046304a?auto=format&fit=crop&q=80&w=1171&ixlib=rb-4.0.3&ixid=M3wxMjA3fDB8MHxwaG90by1wYWdlfHx8fGVufDB8fHx8fA%3D%3D,,참가규모: 30명/정확한 가격은 해당 지자체에 문의
237,1,생활체조(성북구보건소),성북구,서울특별시 성북구 화랑로 63,37.60271066,127.0395333,월 15:50~16:30/ 월 16:30~17:10/ 화 15:50~17:10/ 화 15:50~17:10 / 수 15:50~16:30/ 수 16:30~17:10/ 목 15:50~17:10/ 목 15:50~17:10,유료,02-2241-1749,https://img.freepik.com/free-photo/men-and-women-warm-up-before-and-after-exercising_1150-23003.jpg?w=1060&t=st=1698655137~exp=1698655737~hmac=fbcb731e03e38413e76c25c99f1c393cde5bbd5247d2dd3ec385c04c355d58fe,http://www.sb.go.kr/bogunso/main.do,참가규모: 50명/정확한 가격은 해당 지자체에 문의
238,1,생활체조(돈암코오롱아파트),성북구,서울특별시 성북구 아리랑로 75,37.59883026,127.0136255,목 10:00~10:40,유료,010-8331-9352,https://img.freepik.com/free-photo/men-and-women-warm-up-before-and-after-exercising_1150-23003.jpg?w=1060&t=st=1698655137~exp=1698655737~hmac=fbcb731e03e38413e76c25c99f1c393cde5bbd5247d2dd3ec385c04c355d58fe,,참가규모: 20명/정확한 가격은 해당 지자체에 문의
239,1,걷기(성북동 성곽길),성북구,서울특별시 종로구 창경궁로307 성북동 성곽길 혜화문,37.58796215,127.003505,월 10:00~11:00/ 월 11:00~12:00,유료,,https://images.unsplash.com/photo-1487956382158-bb926046304a?auto=format&fit=crop&q=80&w=1171&ixlib=rb-4.0.3&ixid=M3wxMjA3fDB8MHxwaG90by1wYWdlfHx8fGVufDB8fHx8fA%3D%3D,,참가규모: 30명/정확한 가격은 해당 지자체에 문의
240,1,근력운동(석관두산아파트),성북구,서울특별시 성북구 화랑로48길16,37.61376289,127.0689946,목 10:00~10:45,유료,,https://images.unsplash.com/photo-1517963879433-6ad2b056d712?auto=format&fit=crop&q=80&w=1170&ixlib=rb-4.0.3&ixid=M3wxMjA3fDB8MHxwaG90by1wYWdlfHx8fGVufDB8fHx8fA%3D%3D,,참가규모: 20명/정확한 가격은 해당 지자체에 문의
241,1,생활체조(돈암2동주민센터 다목적홀),성북구,서울특별시 성북구 흥천사길 7,37.59801698,127.010539,목 15:00~16:20,유료,010-9897-5422,https://img.freepik.com/free-photo/men-and-women-warm-up-before-and-after-exercising_1150-23003.jpg?w=1060&t=st=1698655137~exp=1698655737~hmac=fbcb731e03e38413e76c25c99f1c393cde5bbd5247d2dd3ec385c04c355d58fe,,참가규모: 30명/정확한 가격은 해당 지자체에 문의
242,1,생활체조(안암동주민센터 다목적홀),성북구,서울특별시 성북구 고려대로16,37.58582076,127.0213756,수 13:30~14:50,유료,010-4266-8991,https://img.freepik.com/free-photo/men-and-women-warm-up-before-and-after-exercising_1150-23003.jpg?w=1060&t=st=1698655137~exp=1698655737~hmac=fbcb731e03e38413e76c25c99f1c393cde5bbd5247d2dd3ec385c04c355d58fe,,참가규모: 30명/정확한 가격은 해당 지자체에 문의
243,1,배드민턴(용두문화복지센터 (체육관)),동대문구,서울특별시 동대문구 고산자로28길 13,37.57532359,127.0391728,"화,목 10:00~11:30",유료,02-6929-2647,https://images.unsplash.com/photo-1521537634581-0dced2fee2ef?auto=format&fit=crop&q=80&w=1170&ixlib=rb-4.0.3&ixid=M3wxMjA3fDB8MHxwaG90by1wYWdlfHx8fGVufDB8fHx8fA%3D%3D,,참가규모: 15명/정확한 가격은 해당 지자체에 문의
244,1,라인댄스(주민센터3층체육관),광진구,서울특별시 광진구 광나루로36길56,37.54241324,127.0856773,금 10:20~11:00,유료,02-450-1506,https://images.unsplash.com/photo-1537365587684-f490102e1225?q=80&w=1742&auto=format&fit=crop&ixlib=rb-4.0.3&ixid=M3wxMjA3fDB8MHxwaG90by1wYWdlfHx8fGVufDB8fHx8fA%3D%3D,,참가규모: 20명/정확한 가격은 해당 지자체에 문의
245,1,리듬댄스(주민센터3층체육관),광진구,서울특별시 광진구 광나루로36길56,37.54241324,127.0856773,금 09:40~10:20,유료,02-450-1506,https://images.unsplash.com/photo-1537365587684-f490102e1225?q=80&w=1742&auto=format&fit=crop&ixlib=rb-4.0.3&ixid=M3wxMjA3fDB8MHxwaG90by1wYWdlfHx8fGVufDB8fHx8fA%3D%3D,,참가규모: 20명/정확한 가격은 해당 지자체에 문의
246,1,헬스(보건소 체력단련장),광진구,서울특별시 광진구 자양로117,37.53853161,127.0819098,수 09:20~10:00,유료,02-450-1422,https://images.unsplash.com/photo-1517963879433-6ad2b056d712?auto=format&fit=crop&q=80&w=1170&ixlib=rb-4.0.3&ixid=M3wxMjA3fDB8MHxwaG90by1wYWdlfHx8fGVufDB8fHx8fA%3D%3D,www.gwangjin.go.kr/health/main/main.do,참가규모: 20명/정확한 가격은 해당 지자체에 문의
247,1,배드민턴(광장복지관),광진구,서울특별시 광진구 아차산로66길 8,37.54103356,127.0970671,화 16:10~17:00,유료,02-2201-1333,https://images.unsplash.com/photo-1521537634581-0dced2fee2ef?auto=format&fit=crop&q=80&w=1170&ixlib=rb-4.0.3&ixid=M3wxMjA3fDB8MHxwaG90by1wYWdlfHx8fGVufDB8fHx8fA%3D%3D,,참가규모: 20명/정확한 가격은 해당 지자체에 문의
248,1,요가(광장복지관),광진구,서울특별시 광진구 아차산로66길 8,37.54103356,127.0970671,화 15:30~16:10,유료,02-2201-1333,https://images.unsplash.com/photo-1544367567-0f2fcb009e0b?auto=format&fit=crop&q=80&w=1220&ixlib=rb-4.0.3&ixid=M3wxMjA3fDB8MHxwaG90by1wYWdlfHx8fGVufDB8fHx8fA%3D%3D,,참가규모: 20명/정확한 가격은 해당 지자체에 문의
249,1,축구(성동구민종합체육센터),성동구,서울특별시 성동구 왕십리로 89,37.54584153,127.044028,"화, 목 16:00~17:00",유료,02-2204-7617,https://images.unsplash.com/photo-1551958219-acbc608c6377?auto=format&fit=crop&q=80&w=1170&ixlib=rb-4.0.3&ixid=M3wxMjA3fDB8MHxwaG90by1wYWdlfHx8fGVufDB8fHx8fA%3D%3D,https://www.happysd.or.kr/index.do,참가규모: 20명/정확한 가격은 해당 지자체에 문의
250,1,배드민턴(광장동실내배드민턴장),광진구,서울특별시 광진구 천호대로 140길 40,37.54442528,127.1001957,화 13:00~14:00/ 화 14:00~15:00/ 목 13:00~14:00/ 목 14:00~15:00,유료,02-458-9062,https://images.unsplash.com/photo-1521537634581-0dced2fee2ef?auto=format&fit=crop&q=80&w=1170&ixlib=rb-4.0.3&ixid=M3wxMjA3fDB8MHxwaG90by1wYWdlfHx8fGVufDB8fHx8fA%3D%3D,,참가규모: 15명/정확한 가격은 해당 지자체에 문의
251,1,헬스(광진구보건소운동교육실),광진구,서울특별시 광진구 자양로117,37.53853161,127.0819098,화 09:30~10:10/ 화 10:30~11:10/ 수 09:30~10:10/ 수 10:30~11:10,유료,02-450-1300,https://images.unsplash.com/photo-1517963879433-6ad2b056d712?auto=format&fit=crop&q=80&w=1170&ixlib=rb-4.0.3&ixid=M3wxMjA3fDB8MHxwaG90by1wYWdlfHx8fGVufDB8fHx8fA%3D%3D,,참가규모: 20명/정확한 가격은 해당 지자체에 문의
252,1,헬스(광진구청 보건소체력단련실),광진구,서울특별시 자양로117 보건소2층,37.53853161,127.0819098,목 09:30~10:30/ 목 10:30~11:30,유료,02-450-1586,https://images.unsplash.com/photo-1517963879433-6ad2b056d712?auto=format&fit=crop&q=80&w=1170&ixlib=rb-4.0.3&ixid=M3wxMjA3fDB8MHxwaG90by1wYWdlfHx8fGVufDB8fHx8fA%3D%3D,,참가규모: 10명/정확한 가격은 해당 지자체에 문의
253,1,라인댄스(주민센터3층체육관),광진구,서울특별시 광진구 능동로 17길39,37.54652678,127.0712676,목 11:50~12:30,유료,02-450-1515,https://images.unsplash.com/photo-1537365587684-f490102e1225?q=80&w=1742&auto=format&fit=crop&ixlib=rb-4.0.3&ixid=M3wxMjA3fDB8MHxwaG90by1wYWdlfHx8fGVufDB8fHx8fA%3D%3D,,참가규모: 15명/정확한 가격은 해당 지자체에 문의
254,1,리듬댄스(주민센터3층체육관),광진구,서울특별시 광진구 능동로 17길39,37.54652678,127.0712676,목 11:00~11:40,유료,02-450-1515,https://images.unsplash.com/photo-1537365587684-f490102e1225?q=80&w=1742&auto=format&fit=crop&ixlib=rb-4.0.3&ixid=M3wxMjA3fDB8MHxwaG90by1wYWdlfHx8fGVufDB8fHx8fA%3D%3D,,참가규모: 15며/정확한 가격은 해당 지자체에 문의
255,1,라인댄스(주민센터3층체육관),광진구,서울특별시 광진구 자양로3가길,37.52896132,127.0847812,화 14:50~15:30,유료,02-450-1511,https://images.unsplash.com/photo-1537365587684-f490102e1225?q=80&w=1742&auto=format&fit=crop&ixlib=rb-4.0.3&ixid=M3wxMjA3fDB8MHxwaG90by1wYWdlfHx8fGVufDB8fHx8fA%3D%3D,,참가규모: 15명/정확한 가격은 해당 지자체에 문의
256,1,리듬댄스(주민센터3층체육관),광진구,서울특별시 광진구 자양로3가길,37.52896132,127.0847812,화 14:00~14:40,유료,02-450-1511,https://images.unsplash.com/photo-1537365587684-f490102e1225?q=80&w=1742&auto=format&fit=crop&ixlib=rb-4.0.3&ixid=M3wxMjA3fDB8MHxwaG90by1wYWdlfHx8fGVufDB8fHx8fA%3D%3D,,참가규모: 15명/정확한 가격은 해당 지자체에 문의
257,1,스트레칭(세라밴드)(필동주민센터),중구,서울특별시 중구 퇴계로36길 42,37.56015769,126.9955974,목 14:00~14:40,유료,02-3396-6594,https://images.unsplash.com/photo-1552196563-55cd4e45efb3?auto=format&fit=crop&q=80&w=1326&ixlib=rb-4.0.3&ixid=M3wxMjA3fDB8MHxwaG90by1wYWdlfHx8fGVufDB8fHx8fA%3D%3D,https://www.junggu.seoul.kr/dong/pil/main.do,참가규모: 20명/정확한 가격은 해당 지자체에 문의
258,1,스트레칭(세라밴드)(필동주민센터 2층),중구,서울특별시 중구 퇴계로36길 42,37.56015769,126.9955974,화 14:00~14:40,유료,02-3396-6594,https://images.unsplash.com/photo-1552196563-55cd4e45efb3?auto=format&fit=crop&q=80&w=1326&ixlib=rb-4.0.3&ixid=M3wxMjA3fDB8MHxwaG90by1wYWdlfHx8fGVufDB8fHx8fA%3D%3D,https://www.junggu.seoul.kr/dong/pil/main.do,참가규모: 20명/정확한 가격은 해당 지자체에 문의
259,1,스트레칭(세라밴드)(장충체육관),중구,서울특별시 중구 동호로 241,37.55864066,127.0066775,화 10:00~10:50,유료,02-2128-2814,https://images.unsplash.com/photo-1552196563-55cd4e45efb3?auto=format&fit=crop&q=80&w=1326&ixlib=rb-4.0.3&ixid=M3wxMjA3fDB8MHxwaG90by1wYWdlfHx8fGVufDB8fHx8fA%3D%3D,https://www.sisul.or.kr/open_content/jangchung/,참가규모: 15명/정확한 가격은 해당 지자체에 문의
260,1,스트레칭(세라밴드)(황학동주민센터),중구,서울특별시 중구 난계로11길 52,37.56742273,127.0213823,월 10:30~11:30,유료,02-3396-6893,https://images.unsplash.com/photo-1552196563-55cd4e45efb3?auto=format&fit=crop&q=80&w=1326&ixlib=rb-4.0.3&ixid=M3wxMjA3fDB8MHxwaG90by1wYWdlfHx8fGVufDB8fHx8fA%3D%3D,https://www.junggu.seoul.kr/dong/hwanghak/main.do,참가규모: 15명/정확한 가격은 해당 지자체에 문의
261,1,"헬스, 근력운동(황학동주민센터)",중구,서울특별시 중구 난계로11길 52,37.56742273,127.0213823,"수,금 10:30~11:30",유료,02-3396-6907,https://images.unsplash.com/photo-1517963879433-6ad2b056d712?auto=format&fit=crop&q=80&w=1170&ixlib=rb-4.0.3&ixid=M3wxMjA3fDB8MHxwaG90by1wYWdlfHx8fGVufDB8fHx8fA%3D%3D,,참가규모: 20명/정확한 가격은 해당 지자체에 문의
262,1,에어로빅(훈련원공원종합체육관),중구,서울특별시 중구 을지로227 훈련원공원 내,37.56692913,127.0043893,"월, 수, 금 10:10~11:00",유료,02-2280-8394,https://images.unsplash.com/photo-1487956382158-bb926046304a?auto=format&fit=crop&q=80&w=1171&ixlib=rb-4.0.3&ixid=M3wxMjA3fDB8MHxwaG90by1wYWdlfHx8fGVufDB8fHx8fA%3D%3D,http://www.e-junggu.or.kr/,참가규모: 14명/정확한 가격은 해당 지자체에 문의
263,1,헬스(다산동주민센터),중구,서울특별시 중구 동호로 15길50,37.55433289,127.0082945,화 14:00~14:40/ 목 14:00~14:40,유료,02-3396-6740,https://images.unsplash.com/photo-1517963879433-6ad2b056d712?auto=format&fit=crop&q=80&w=1170&ixlib=rb-4.0.3&ixid=M3wxMjA3fDB8MHxwaG90by1wYWdlfHx8fGVufDB8fHx8fA%3D%3D,http://www.junggu.seoul.kr/dong/dasan/main.do,참가규모: 15명/정확한 가격은 해당 지자체에 문의
264,1,헬스(청구동주민센터),중구,서울특별시 중구 청구로 3길 55,37.55706761,127.0146854,화 10:00~10:40/ 목 10:00~10:40,유료,02-3396-6800,https://images.unsplash.com/photo-1517963879433-6ad2b056d712?auto=format&fit=crop&q=80&w=1170&ixlib=rb-4.0.3&ixid=M3wxMjA3fDB8MHxwaG90by1wYWdlfHx8fGVufDB8fHx8fA%3D%3D,http://www.junggu.seoul.kr/dong/cheonggu/main.do,참가규모: 15명/정확한 가격은 해당 지자체에 문의
265,4,1984,마포구,마포구 동교로 194 혜원빌딩,37.55738472,126.9228861,,무료,02-325-1984,https://bookshopmap.s3.ap-northeast-2.amazonaws.com/venue/1984-cover.JPG,https://www.instagram.com/1984store,새책방
266,4,21세기문고,강남구,강남구 남부순환로359길 31,37.48683261,127.0355653,,무료,02-3463-1880  ,https://mblogthumb-phinf.pstatic.net/MjAyMzA3MjVfMTIz/MDAxNjkwMjUwNDU3MTcx.6YKu1ZbSD8GG_-OUrjgTeoU2_iHrI8Y78vwuQ8wCqDsg.k-VV9GLLlCL0bhwg1QMY-fueLser0RNXhEV2o-WA5gQg.PNG.seoul_library/21%EC%84%B8%EA%B8%B0%EB%AC%B8%EA%B3%A0.png?type=w800,,새책방
267,4,C&S서점,강남구,강남구 남부순환로 2806 군인공제회관 지하1층,37.48910918,127.0529141,,무료,02-2190-2178,https://search.pstatic.net/common/?autoRotate=true&quality=100&type=f640_380&src=https%3A%2F%2Fldb-phinf.pstatic.net%2F20150901_60%2F1441048528793tMKht_JPEG%2FSUBMIT_1285757803699_13514755.jpg,,새책방
268,4,Itaewon books,용산구,용산구 녹사평대로 208,37.53624637,126.9872269,,무료,02-793-8249,https://mblogthumb-phinf.pstatic.net/MjAyMzAxMDVfMjkx/MDAxNjcyOTI5ODg5NzA3.DjqdqEW2ahbKinzokoVFBynwXno4sLd2U5HLxl_gHt0g.nf9Glw6EBNPQjtChjm4IXPmqirdurq1P_ytteQEegf4g.JPEG.smith0715/IMG_1761.jpg?type=w800,https://www.instagram.com/itaewon_foreign_bookstore,헌책방
269,4,PRNT,동작구,동작구 만양로1길 1 1층,37.50573295,126.9467369,,무료,070-4177-0021,https://search.pstatic.net/common/?src=https%3A%2F%2Fldb-phinf.pstatic.net%2F20210218_249%2F1613627483694JK8fJ_JPEG%2F6Q-6-jqgUFY3X2tIfPUkSwQG.jpeg.jpg,https://prntseoul.com,새책방
270,4,SK문고,강북구,강북구 솔샘로 215 2층,37.6202008,127.0166087,,무료,02-945-1959,https://search.pstatic.net/common/?autoRotate=true&quality=100&type=f640_380&src=https%3A%2F%2Fldb-phinf.pstatic.net%2F20210609_56%2F1623224035353AwCBA_JPEG%2FrQLT8HF4njCqa8fuNmRatFKo.jpg,,새책방
271,4,YES24 중고매장(목동점),양천구,양천구 오목로 325 지하 1층,37.52510741,126.873627,,무료,1566-4295,https://image.yes24.com/sysimage/store/photo/mokdong/PhotoTop01.jpg,,헌책방
272,4,YES24(강서NC점),강서구,"강서구 강서로56길 17 NC백화점 강서점 8, 9층",37.55993353,126.8404988,,무료,,https://image.yes24.com/momo/TopCate3696/MidCate005/369545875(1).jpg,,새책방
273,4,가가77페이지,마포구,마포구 망원로 74-1 지하1층,37.55726128,126.9051793,,무료,,"https://image.bookshopmap.com/600,fit,q60/venue/image02.png?ver=1664692007",http://77page.com,새책방
274,4,가람프라자,금천구,금천구 시흥대로41길 95,37.45066173,126.9000346,,무료,02-891-7474,https://search.pstatic.net/common/?autoRotate=true&quality=100&type=f640_380&src=https%3A%2F%2Fldb-phinf.pstatic.net%2F20210705_54%2F1625471882963zJabY_JPEG%2F_zUR3rqsMM9tgCbF2E_8tx7g.jpg,,새책방
275,4,각자의 삶,종로구,서울 종로구 창덕궁길 169 1층,37.58305958,126.9865889,,무료,0507-1432-7577,https://search.pstatic.net/common/?src=https%3A%2F%2Fldb-phinf.pstatic.net%2F20220621_23%2F1655801865503yWh6u_JPEG%2F%25BC%25AD%25C1%25A11.jpg,,새책방
276,4,감성인간서점,성북구,성북구 돌곶이로 41가길 14-10,37.61868437,127.0446506,,무료,,https://bookshopmap.s3.ap-northeast-2.amazonaws.com/venue/KakaoTalk_20220329_145818000_a9e8d841-2.jpeg?ver=1649729481,https://blog.naver.com/dnfladydgk,새책방
277,4,갑을문고,성북구,성북구 화랑로11길 26,37.60330001,127.0421083,,무료,0507-1320-0002,https://search.pstatic.net/common/?autoRotate=true&quality=100&type=f640_380&src=https%3A%2F%2Fldb-phinf.pstatic.net%2F20201016_26%2F1602831320938QrY5j_JPEG%2FNl43EW7hWv-OATbGdg-rDiDM.jpeg.jpg,https://www.instagram.com/gapeul_bookstore,새책방
278,4,강동도서할인매장,강동구,강동구 구천면로 500,37.54901953,127.1538303,,무료,02-427-7333,https://search.pstatic.net/common/?src=https%3A%2F%2Fldb-phinf.pstatic.net%2F20190130_200%2F1548854732632009IN_JPEG%2FNj_46xzzPCbgQHQGRrhvGuNQ.jpg,,새책방
279,4,강동헌책방,강동구,강동구 구천면로 257,37.54327293,127.1316483,,무료,02-471-0272,https://mblogthumb-phinf.pstatic.net/MjAyMTA4MTBfMTI2/MDAxNjI4NTY4NDEzOTc5.7MEAeBcZrNmYik5Zh5CwuZIIrzaTp0UcTkKgKGyLKXkg.yEcwLa2jenbD99Xf-_CVZvCWpHEZo1XeCL-NiO1UUOMg.JPEG.moojum419/20210810%EF%BC%BF122041.jpg?type=w800,,헌책방
280,4,강서책서점,양천구,양천구 목동중앙남로 28,37.53647642,126.8673893,,무료,02-651-1085,https://mblogthumb-phinf.pstatic.net/MjAyMjA3MDJfMjY5/MDAxNjU2Njk4NTczMTkz.7DeXXikM4qGKNj7CiEx5Mu1wc1LBtvwdZtt34xF-2uEg.U-C6CjvcNz-fQ94SnQk9g5Z6iBau78GSFk87AKJQ3Z4g.JPEG.golfer36/20220701%EF%BC%BF170557.jpg?type=w800,,새책방
281,4,개똥이네(가양점),강서구,강서구 양천로 431 지하 1층,37.56426405,126.8499602,,무료,02-2658-2982 ,https://modo-phinf.pstatic.net/20180524_48/1527146423518Mkiij_JPEG/mosaooU2vk.jpeg?type=f320_320,,헌책방
282,4,개똥이네(노원점),노원구,노원구 동일로217가길 17 2층,37.6533222,127.0593697,,무료,02-951-2989,https://modo-phinf.pstatic.net/20180626_112/1530022524766a9Rsh_JPEG/mosagZPabB.jpeg?type=f320_320,,헌책방
283,4,개똥이네(영등포점),영등포구,영등포구 여의대방로62길 2 5층,37.51381602,126.9266765,,무료,02-822-2989,https://mblogthumb-phinf.pstatic.net/MjAxOTAyMjBfNDIg/MDAxNTUwNjM2ODI1ODMz.dALpGijeu5Xds8rS2dVJuK7WLs8kLWief6UdEcEVxUcg.rddIdFb_PEXV7xYTbbmBLrYYoxw1_oI8EF2QTEaQvv4g.JPEG.ranran115200/SE-085c1587-1cd4-46f7-83c1-2ee416c09702.jpg?type=w800,,헌책방
284,4,개똥이네(잠실점),송파구,송파구 올림픽로35길 93 지하1층 상가 118호,37.51773252,127.1044332,,무료,02-445-2989,https://mblogthumb-phinf.pstatic.net/MjAyMjA1MzFfMjQy/MDAxNjUzOTc5NzcyNzY4.ZxkCwmeP01ZK8jDn6Vylfkg_QrUht0Qo5Lwp1OlkH7Ig.783_kvzGGscrGqcpKJOvvgFUrelyuvBf6JZq1Ms0pA8g.JPEG.a125115/%EA%B0%9C%EB%98%A5%EC%9D%B4%EB%84%A4%EC%9E%A0%EC%8B%A4%EC%A0%90%EB%A7%A4%EC%9E%A51.jpg?type=w800,,헌책방
285,4,개롱서적,송파구,송파구 오금로 414 명문빌딩 지하1층,37.49720786,127.1359163,,무료,02-403-1603,https://mblogthumb-phinf.pstatic.net/MjAxNjExMTlfODEg/MDAxNDc5NDg0NDY4NjI2.OidRmh2v8LjJ8cvn-NGGebgbagNCDN8Ohw4oXk1hU14g.gC4bsLViNqGn00CEi7HDCq7JmXnyGvcBwk7GTE80m0sg.JPEG.qufrjfek10/SAM_4999.JPG?type=w800,,새책방
286,4,거목서점,서초구,서초구 신반포로 213 지하 9호,37.50727104,127.0072709,,무료,02-3476-1585,https://search.pstatic.net/common/?src=https%3A%2F%2Fldb-phinf.pstatic.net%2F20201123_135%2F1606114615755KLqw3_JPEG%2F4t5Is8Z8-YznxbO556Th0tD_.jpg,,새책방
287,4,거북서점,노원구,노원구 상계로 115,37.6576976,127.0674937,,무료,,https://www.seoulbookbogo.kr/front/img/2spic09_3.jpg,,헌책방
288,4,게으른 오후,강서구,양천로30길 46 1층,37.57118143,126.8224843,,무료,070-8862-9632,https://search.pstatic.net/common/?src=https%3A%2F%2Fldb-phinf.pstatic.net%2F20221211_245%2F1670746981774Hity2_JPEG%2FKakaoTalk_20221126_172416844.jpg,,새책방
289,4,경일서점,성동구,성동구 성수일로 33 지하1층,37.54364277,127.0491876,,무료,02-497-5670,https://search.pstatic.net/common/?autoRotate=true&quality=100&type=f640_380&src=https%3A%2F%2Fldb-phinf.pstatic.net%2F20181005_226%2F1538721309504bXVPi_JPEG%2FOSPj9cBu-SGeXvnK8YyNsux5.jpg,,새책방
290,4,경험서재,마포구,백범로 35 서강대학교 곤자가홀 1층,37.55117594,126.9437674,,무료,0507-1372-7932,https://search.pstatic.net/common/?src=https%3A%2F%2Fldb-phinf.pstatic.net%2F20230208_277%2F1675866653704irtd8_JPEG%2F%25B0%25E6%25C7%25E8%25BC%25AD%25C0%25E7_%25C1%25A4%25BB%25E7%25B0%25A2%25C7%25FC.jpg,https://blog.naver.com/experiencelibrary,새책방
291,4,경희문고,동대문구,동대문구 회기로 113,37.59164957,127.0493102,,무료,02-957-7799,https://search.pstatic.net/common/?src=https%3A%2F%2Fldb-phinf.pstatic.net%2F20220506_296%2F1651822046995XEMCk_JPEG%2F20220505_181613.jpg,,새책방
292,4,계성문고,성북구,성북구 길음로 33 2층 22호,37.60504925,127.0220094,,무료,02-943-5398,https://img.etoday.co.kr/pto_db/2020/08/20200828130926_1503503_1199_799.jpg,https://www.facebook.com/Gyeseongbooks,새책방
293,4,고래서점,용산구,용산구 한강대로 307,37.54572765,126.9715375,,무료,02-717-8346,https://search.pstatic.net/common/?autoRotate=true&quality=100&type=f640_380&src=https%3A%2F%2Fldb-phinf.pstatic.net%2F20190519_87%2F1558271704352KQHvB_JPEG%2FIWWpSUesmB4n7z5SPUawaj4d.jpg,http://www.bookgore.com/,새책방
294,4,고시책사랑,관악구,관악구 호암로26길 27,37.4706007,126.9352363,,무료,02-871-5550,https://search.pstatic.net/common/?autoRotate=true&quality=100&type=f640_380&src=https%3A%2F%2Fldb-phinf.pstatic.net%2F20150901_179%2F1441055340188s37bS_JPEG%2FSUBMIT_1401879527622_11850756.jpg,,헌책방
295,4,고요서사,용산구,용산구 신흥로15길 18-4,37.54437666,126.9858576,,무료,0507-1410-4226,"https://image.bookshopmap.com/600,fit,q60/venue/goyo_bookshop1.jpg",http://blog.naver.com/goyo_bookshop,새책방
296,4,곰서점,동작구,동작구 양녕로 186 지하1층,37.49791392,126.9435904,,무료,02-821-5672,https://mblogthumb-phinf.pstatic.net/20160729_178/jung1w_1469752286917R2sNc_JPEG/attachImage_4115552710.jpeg?type=w800,,새책방
297,4,공간과몰입,종로구,종로구 낙산길 19,37.58054788,127.0055969,,무료,,https://bookshopmap.s3.ap-northeast-2.amazonaws.com/venue/F1201440-53FF-4619-89AE-F511BCAD8D23_2994fe17.jpeg?ver=1643524930,https://blog.naver.com/gggmolip,새책방
298,4,공상온도,마포구,마포구 동교로 23길40 지하1층,37.55765748,126.9198091,,무료,0507-1404-0247,https://static.comeup.asia/ajaxs/05a5cf06982ba7892ed2a6d38fe832d6/%EA%B3%B5%EC%83%81%EC%98%A8%EB%8F%84%205.jpg,http://www.gongsangondo.com,새책방
299,4,공손서점,광진구,광진구 아차산로70길 17-17,37.54169929,127.1025258,,무료,02-444-1570,https://search.pstatic.net/common/?src=https%3A%2F%2Fldb-phinf.pstatic.net%2F20190710_203%2F1562757122813El0F4_JPEG%2F5VRizcBnhbj6h_UQ9cw6-AGx.jpeg.jpg,,새책방
300,4,공씨책방(성수점),성동구,성동구 광나루로 130 106호-라,37.55097877,127.0447207,,무료,,"https://image.bookshopmap.com/600,fit,q60/venue/%E1%84%80%E1%85%A9%E1%86%BC%E1%84%8A%E1%85%B5%E1%84%8E%E1%85%A2%E1%86%A8%E1%84%87%E1%85%A1%E1%86%BC-%E1%84%89%E1%85%A5%E1%86%BC%E1%84%83%E1%85%A9%E1%86%BC%E1%84%80%E1%85%AE.jpeg",,헌책방
301,4,공씨책방(신촌점),서대문구,서대문구 신촌로 55-2,37.5568761,126.932749,,무료,02-336-3058,https://bookshopmap.s3.ap-northeast-2.amazonaws.com/venue/%E1%84%80%E1%85%A9%E1%86%BC%E1%84%8A%E1%85%B5%E1%84%8E%E1%85%A2%E1%86%A8%E1%84%87%E1%85%A1%E1%86%BC-%E1%84%89%E1%85%B5%E1%86%AB%E1%84%8E%E1%85%A9%E1%86%AB%E1%84%8C%E1%85%A5%E1%86%B7-%E1%84%8B%E1%85%A1%E1%87%81.jpg,,헌책방
302,4,공일서점,노원구,노원구 공릉로 101 경동상가,37.61930144,127.0778417,,무료,02-972-6407,https://storage.googleapis.com/real-seoul-image/place/da1c519b-85db-4ed9-8ee1-508063e610f3.png,,새책방
303,4,과학책방 갈다,종로구,종로구 삼청로10길 18,37.58763566,126.9820384,,무료,0507-1314-1018,https://storage.googleapis.com/cr-resource/image/27cf9b9af0f70922d4875dd55b58aa80/galdar/1920/c7efdd869082a4cadc72b06ac3b887fe.jpg,http://galdar.kr,새책방
304,4,관객의취향,관악구,관악구 관악로 204 3층 301호,37.48296173,126.9542948,,무료,070-8818-2046 ,https://image.yes24.com/images/chyes24/froala/0/51470/73150.jpg,http://smartstore.naver.com/yourtastebook,새책방
305,4,광명문고,은평구,은평구 수색로 268 지하 1층,37.5829395,126.8947019,,무료,02-303-0524,https://dnvefa72aowie.cloudfront.net/origin/smb/202005/5697bd6889e3719f5997a818146bf886ef59fc36d9af24071f56013ca77c464d.webp?q=95&s=1440x1440&t=inside,https://blog.naver.com/herryqrio ,새책방
306,4,광진서적,광진구,광진구 광나루로36길 76,37.5416637,127.0854335,,무료,02-455-2999,https://mblogthumb-phinf.pstatic.net/MjAxOTEwMjVfMTIy/MDAxNTcyMDEyMzE2NTMw.0vqDV69mYS0S1iiXuaaec1UkrZUe9wbs-I_x6WZBp6Ig.wCr1qD6sJCfRjqCD8tYMFNARlkVOmby8W86gJFqE73gg.JPEG.ydss0561/SE-5043227b-06c0-4b16-939a-1f40427d5e36.jpg?type=w800,,새책방
307,4,교보문고(가든파이브 바로드림센터),송파구,"송파구 충민로 66, 가든파이브 라이프 리빙관 현대시티몰 4층",37.47761484,127.1249618,,무료,1544-1900,https://mblogthumb-phinf.pstatic.net/MjAyMDA2MjFfMjc5/MDAxNTkyNzI5ODg4MDA3.xCSCYlX52OGjsirjeHI4dk2kSbF6KAbqSgkpVbbhSzsg.x9wUyRL3cvC3sqZdn5y6DsVfJQwZUM2vZ0XwPfJB-twg.JPEG.hyehwa0056/1592729888719.jpg?type=w800,,새책방
308,4,교보문고(강남점),서초구,"서초구 강남대로 465, 교보타워 지하 1~지하 2층",37.50375605,127.0241095,,무료,1544-1900,https://mblogthumb-phinf.pstatic.net/MjAxNzAzMjhfMzQg/MDAxNDkwNjg5ODAzMDQx.i2u2AFSdAXlJDb4OauWnLesm2zqHCw1z_s9JQVhPAMEg.fa6RITZidyVuV5mOczC5kGVNDiaQcUYkYGDnVRbJp8Yg.JPEG.digitalhippy/image_9481413161490689780258.jpg?type=w800,https://www.kyobobook.co.kr/store/?storeCode=015,새책방
309,4,교보문고(건대 바로드림센터),광진구,능동로 92 롯데백화점 스타시티점 지하1층,37.53899977,127.0712144,,무료,1544-1900,https://mblogthumb-phinf.pstatic.net/MjAyMjAxMDRfMjU2/MDAxNjQxMzA0ODEzODYw.PbRqIDmUQujeSyOx8fiNIbCUQFnCDFOz1l7KzV_3o60g.XATHLx-OPWYwIzUHWZdGTAFVeWjtxQYNviN6SdDVgakg.JPEG.digitalhippy/SE-a17ca7b4-561e-474b-b28c-9f4960940856.jpg?type=w800,,새책방
310,4,교보문고(광화문점),종로구,"종로구 종로 1, 교보생명빌딩 지하 1층",37.57095784,126.9779288,,무료,1544-1900,https://contents.kyobobook.co.kr/etc/ec/store/582be99d99744cbba145b19b2b153fae.png,,새책방
311,4,교보문고(디큐브시티 바로드림센터),구로구,"구로구 경인로 662, 현대백화점 지하 1층",37.50812307,126.888213,,무료,1544-1900,https://mblogthumb-phinf.pstatic.net/MjAyMDA2MTJfNzYg/MDAxNTkxOTU5Mjg1ODA1.0zzXqz6VOF42ibWhpmwX8umD0idYQVU4zisxJCIR6EEg.RzW3_14Ljj6GybkURnj3xJb-L5j9l5Xy_m17k6S37K8g.JPEG.digitalhippy/SE-0ee93bff-9931-420a-8959-9578503b5cb0.jpg?type=w800,,새책방
312,4,교보문고(목동점),양천구,"양천구 목동서로 159-1, CBS 지하 1층",37.52823182,126.8749907,,무료,1544-1900,https://search.pstatic.net/common/?src=https%3A%2F%2Fldb-phinf.pstatic.net%2F20201124_146%2F16062024920653AQzV_PNG%2FRtHzIJcvpqG7VLIJXOk_KfBF.png,,새책방
313,4,교보문고(수유 바로드림센터),강북구,"강북구 도봉로 348, 교보생명빌딩 지하 1층",37.6383189,127.0265481,,무료,1544-1900,https://mblogthumb-phinf.pstatic.net/MjAyMTExMDdfNjIg/MDAxNjM2Mjg2NTA1NTQx.rbcr5mLI45JasxUG8A--d3UJSb6Ieg6Zyk9rA7u_iR8g.UxQW-OicuA3Q7grUtmeeAD8TjxMy1gnNTSxThoHIVWkg.JPEG.digitalhippy/SE-01dac053-eda7-40c1-82d5-2cd614511953.jpg?type=w800,,새책방
314,4,교보문고(신논현역스토어),강남구,강남구 봉은사로 102 지하 1층,37.50463416,127.0250313,,무료,1544-1900,https://search.pstatic.net/common/?src=https%3A%2F%2Fldb-phinf.pstatic.net%2F20201124_146%2F16062024920653AQzV_PNG%2FRtHzIJcvpqG7VLIJXOk_KfBF.png,,새책방
315,4,교보문고(영등포점),영등포구,"영등포구 영중로 15, 타임스퀘어 멀티플렉스 2층",37.51723326,126.903716,,무료,1544-1900,https://search.pstatic.net/common/?src=https%3A%2F%2Fldb-phinf.pstatic.net%2F20201124_146%2F16062024920653AQzV_PNG%2FRtHzIJcvpqG7VLIJXOk_KfBF.png,,새책방
316,4,교보문고(은평 바로드림센터),은평구,"은평구 통일로 1050, 롯데몰 3층",37.63753667,126.9179003,,무료,1544-1900,https://newsmanager2.etomato.com/userfiles/image/16%EA%B8%B0%20%EA%B6%8C%EC%9D%B5%EB%8F%84/%EC%9D%80%ED%8F%89%20%EB%B0%94%EB%A1%9C%EB%93%9C%EB%A6%BC%EC%84%BC%ED%84%B0%202.jpg,,새책방
317,4,교보문고(잠실점),송파구,"송파구 올림픽로 269, 롯데캐슬골드 지하 1층",37.51442735,127.1006114,,무료,1544-1900,https://mblogthumb-phinf.pstatic.net/MjAyMjA2MjBfMTQg/MDAxNjU1NzA3NjcxODY0.pWskdNqJ9z0Z8cbnNQ9UdiyJLFBa2ZZw0pfVHaV3kTcg.cvguVldHXJ9QbEuNPmAMkxQSM6Py1P9dgbvFXTfv_AMg.JPEG.je505050/KakaoTalk_20220620_153855776.jpg?type=w800,,새책방
318,4,교보문고(천호점),강동구,"강동구 올림픽로 664, 대우한강베네시티 지하 1층",37.54055538,127.1249758,,무료,1544-1900,https://mblogthumb-phinf.pstatic.net/MjAxOTA1MTRfMjE2/MDAxNTU3ODMyMTcxOTU4.PcEmqHNVc02WC9Tu91zJS1pTX0PpxxXM57GgtkYNuZMg.hoBAXaZCZlLC5wfWgtT1ckB7MtZ4jx_L3pV1PLIpFJgg.JPEG.kiki5730/20190514_194815.jpg?type=w800,,새책방
319,4,교보문고(청량리 바로드림센터),동대문구,"동대문구 왕산로 214, 롯데백화점 청량리점 지하 1층",37.58419614,127.0511471,,무료,1544-1900,https://mblogthumb-phinf.pstatic.net/MjAxODEwMzBfMjk4/MDAxNTQwODk2NjU5ODIx.s4IE-Vxzww_uQBMlMTbEI3naEPGlaCgwKcL-uEyP0pYg.Rs4BJPKYu5CKKDqjecum-tv8maXQq0voi1r_UMIO_tgg.JPEG.digitalhippy/image_4459988661540896610209.jpg?type=w800,,새책방
320,4,교보문고(합정점),마포구,"마포구 월드컵로3길 14 딜라이트스퀘어 2차(지하 1층), 1차(지하 2층)",37.55100797,126.911649,,무료,1544-1900,https://mblogthumb-phinf.pstatic.net/MjAxNzA0MjZfNTIg/MDAxNDkzMTg2NDkyODI2.0IskcbmIMq_5O9z2c0uIyHp4WiAjLYm7I-8p10Hc4M0g.s-veMTYUQJHjQIHELDxGF1fe5cNM0nXUqsF7cImY9Y4g.JPEG.sits0/%ED%95%A9%EC%A0%95%EB%8F%99_%EA%B5%90%EB%B3%B4%EB%AC%B8%EA%B3%A0_04.jpg?type=w800,,새책방
321,4,교보서적,강서구,강서구 양천로 87 대일빌딩 지하1층,37.57360861,126.8136505,,무료,02-2664-6148 ,https://search.pstatic.net/common/?src=https%3A%2F%2Fldb-phinf.pstatic.net%2F20200813_62%2F1597317210434UvzRS_JPEG%2Fmj9Yw1qzRXGdvdVrtE9yEK6r.jpeg.jpg,,새책방
322,4,그날이오면 ,관악구,관악구 신림로 14길 26,37.47189358,126.9383179,,무료,02-885-8290,https://img1.daumcdn.net/thumb/R1280x0/?fname=http://t1.daumcdn.net/brunch/service/user/aKW0/image/ocn-4b3DTDGRM7twPsJbLd_PuFM.jpg,http://www.gnal.co.kr,새책방
323,4,그래서,중구,중구 동호로37길 20 A동 2층 132호,37.56872417,127.0008056,,무료,02-2268-3305,https://bookshopmap.s3.ap-northeast-2.amazonaws.com/venue/glaeso_book.jpg,http://glaeso.shop.blogpay.co.kr,새책방
324,4,그래픽,용산구,용산구 회나무로39길 33,37.54093281,126.9935916,,유료,070-4070-0204,https://cdn.designhouse.co.kr/cms/img/2022/03/M.1648432731.3516.2.jpg,https://www.instagram.com/graphic.fan/,"새책방, 만화카페"
325,4,그랜드문고,노원구,노원구 한글비석로 253 지하1층,37.6504237,127.0763481,,무료,02-938-1065,https://search.pstatic.net/common/?autoRotate=true&quality=100&type=f640_380&src=https%3A%2F%2Fldb-phinf.pstatic.net%2F20160320_56%2F1458480751398JXoBA_JPEG%2F176270626251257_0.jpeg,https://smartstore.naver.com/grandbooks,새책방
326,4,그린북스,중랑구,중랑구 봉화산로 94 2층,37.60208775,127.0849258,,무료,02-433-6728,https://search.pstatic.net/common/?src=https%3A%2F%2Fldb-phinf.pstatic.net%2F20150901_257%2F1441055081259Yj2oe_JPEG%2F33280107_0.jpeg,,헌책방
327,4,그림책방 곰곰,마포구,마포구 연남로 61-1,37.56462283,126.9198304,,무료,02-335-2041,https://bookshopmap.s3.ap-northeast-2.amazonaws.com/venue/gomgom-c.jpg,https://smartstore.naver.com/gomgombookstore,새책방
328,4,그림책방 종달새의 마음,성북구,월곡로 54 1층,37.59704723,127.0392113,,무료,,https://search.pstatic.net/common/?src=https%3A%2F%2Fldb-phinf.pstatic.net%2F20230523_119%2F1684787318218yKP8N_PNG%2F1682637188934-0-01-01.png,,새책방
329,4,글방,중구,중구 청계천로 274 다7호,37.56942586,127.0080476,,무료,02-2273-0111,https://search.pstatic.net/common/?src=https%3A%2F%2Fldb-phinf.pstatic.net%2F20191013_139%2F1570945146239sUtgv_JPEG%2FfSOjGYgll2Pd5_TXEd_FIp0B.jpg,,헌책방
330,4,글벗서점,은평구,은평구 은평로 66,37.59879593,126.9151238,,무료,02-302-6621,https://t1.daumcdn.net/thumb/R720x0/?fname=http://t1.daumcdn.net/brunch/service/user/5FsQ/image/GsxN-YsT_jAJNsdrhfv88ehHZxs.jpeg,,새책방
331,4,글벗서점,강남구,강남구 도곡로 516 삼성상가 지하1층,37.49918128,127.0629879,,무료,02-557-8910,https://t1.daumcdn.net/thumb/R720x0/?fname=http://t1.daumcdn.net/brunch/service/user/5FsQ/image/GsxN-YsT_jAJNsdrhfv88ehHZxs.jpeg,,새책방
332,4,글벗서점,마포구,마포구 신촌로 48,37.55683681,126.9313194,,무료,02-333-1382,https://t1.daumcdn.net/thumb/R720x0/?fname=http://t1.daumcdn.net/brunch/service/user/5FsQ/image/GsxN-YsT_jAJNsdrhfv88ehHZxs.jpeg,,헌책방
333,4,글빛문고,양천구,양천구 목동중앙로 43 지하 1층,37.533541,126.8695252,,무료,02-2642-8360,https://search.pstatic.net/common/?autoRotate=true&quality=100&type=f640_380&src=https%3A%2F%2Fldb-phinf.pstatic.net%2F20200422_203%2F1587550011882jrC2s_JPEG%2F31hcdfZaHCzpeeGIDZVnPRPA.jpeg.jpg,,새책방
334,4,금지옥엽,중구,중구 청계천로 160 세운청계상가 3층 데크 가열 312호,37.56797986,126.9953651,,무료,02-2273-0220,https://storage.googleapis.com/real-seoul-image/place/b86ba3e0-839a-4ab7-87f7-c02d95091d2c.png,https://cherishstorage.kr/,새책방
335,4,기독성문서적,중구,중구 청계천로 274 다26호,37.56942586,127.0080476,,무료,02-2279-3902,https://mblogthumb-phinf.pstatic.net/MjAyMjAzMTVfNDAg/MDAxNjQ3MzUzNDQzNzc3.zEjefl-heoZBU48EFL1v6fAMehTOdoZ65DyT5BgKdesg.NQttq-0d1jPtcWsou63ug1cL-65HO-NrlRnwdkGPmKAg.JPEG.chumjan/20220311%EF%BC%BF162950.jpg?type=w800,,헌책방
336,4,깡지서점,관악구,관악구 신림로 30길 21,37.47318034,126.9358177,,무료,,https://search.pstatic.net/common/?autoRotate=true&quality=100&type=f640_380&src=https%3A%2F%2Fldb-phinf.pstatic.net%2F20171110_284%2F1510292901868EQw28_JPEG%2FNRGvSRkL4FGb9rWUDAihoTpr.jpg,,헌책방
337,4,꼬리달린책방(협동조합 카페마을),양천구,양천구 목동중앙북로16길 39,37.54447865,126.8739729,,무료,02-6052-0620,https://mblogthumb-phinf.pstatic.net/MjAxODEwMThfMiAg/MDAxNTM5ODQxMDQ5NDU4.edgOam1FC6REX-xkQhOCg9HwhP5b9jJOVjK51tw24eUg.uW5wy8ua4Gbc3EIqXoOXVMWKr86drj3l-4khxcSIPfwg.JPEG.seoulcoopcenter/1-1.jpeg?type=w800,https://www.instagram.com/tail_bookstore,새책방
338,4,꽃피는책,양천구,양천구 목동중앙북로16길 58,37.54353549,126.8738048,,무료,0507-1306-0858,https://www.100news.kr/imgdata/100news_kr/202107/2021071307137740.jpg,https://www.instagram.com/blooming__books,새책방
339,4,나라문고,강서구,강서구 강서로 247 지하1층,37.54779279,126.8360362,,무료,02-2603-3231,https://mblogthumb-phinf.pstatic.net/MjAyMTAxMzFfMTk5/MDAxNjEyMDcwMDc5NzM1.KVA4Y8Ij8SLl108MSoeIGGttGJhVEaLRZ31Y1kqR8Ksg.JtJ7IWd9DcVMWzyix6Yx3GKsnAbLtmPL05Seu55ISl8g.JPEG.kdongchae/SE-e6b0f1ed-5de2-11eb-9260-314eb4c2b76e.jpg?type=w800,,새책방
340,4,나무곁에서서,강서구,강서구 강서로76길 19,37.56934296,126.8426277,,무료,,https://search.pstatic.net/common/?autoRotate=true&quality=100&type=f640_380&src=https%3A%2F%2Fldb-phinf.pstatic.net%2F20200812_155%2F1597231324673mpXLi_JPEG%2FVL5TV-YaDocmaKwpl8xwveQ8.jpeg.jpg,https://blog.naver.com/bythetreebooks,새책방
341,4,나비루,송파구,송파구 올림픽로10길 40 102호,37.50818302,127.081577,,무료,070-7573-3034,https://mblogthumb-phinf.pstatic.net/MjAyMTA2MTFfMjI3/MDAxNjIzMzcxNTgzNjk4.0U7cqH7ncYK3qZk1EFp08DA0njDPSIIiJKvdguEx3YYg.OkxexY8JAKIDWTNDmL0olms5roeHwubjTk3t72X5hCQg.JPEG.songpaculture/%EB%82%98%EB%B9%84%EB%A3%A8(1).jpg?type=w800,https://www.instagram.com/nabirubook,새책방
342,4,날일달월,광진구,광진구 아차산로78길 7 유진스웰 B 202호,37.5503756,127.1092971,,무료,02-457-0102,https://search.pstatic.net/common/?src=https%3A%2F%2Fldb-phinf.pstatic.net%2F20240210_85%2F1707542536816HcEv9_JPEG%2F9223.jpg,https://blog.naver.com/nalildalwol,"새책방, 샐러드 뷔페"
343,4,남영서점,동작구,동작구 서달로 149,37.50677051,126.9614626,,무료,02-815-3830,https://mblogthumb-phinf.pstatic.net/MjAxNzA4MjlfNjEg/MDAxNTAzOTkwMDkyMDYx.r4N9TktiX6mLA01FZChKs7lA3CdisvYafHlEeiik4VUg.-rlS7B6wkWc01kuxdf47TH0cTY2vYINEjEYStnU8Rqsg.JPEG.greanb/17-08-18-19-21-16-707_photo.jpg?type=w420,,헌책방
344,4,낫저스트북스,성동구,성동구 성덕정9가길 14,37.53887486,127.0512958,,무료,070-4112-2016,"https://image.bookshopmap.com/600,fit,q60/venue/3172dd6654bb8.jpg",https://notjust-books.com,새책방
345,4,노른자책방,영등포구,영등포구 선유로9길 30 롯데캐슬상가 207호,37.52443186,126.8847533,,무료,0507-1351-0173,https://bookshopmap.s3.ap-northeast-2.amazonaws.com/venue/norunza_90965756_1067234946971709_3528335831236315508_n.jpg,https://blog.naver.com/norunza-art,새책방
346,4,노말에이,중구,중구 마른내로 12 4층,37.56460792,126.9891161,,무료,070-4681-5858 ,"https://image.bookshopmap.com/600,fit,q60/venue/newnormala-1-700x700.jpg?ver=1625464464",http://normala.kr,새책방
347,4,노원문고 본점,노원구,노원구 동일로 1384 지하1층,37.65234567,127.0615671,,무료,02-951-0633,"https://image.bookshopmap.com/600,fit,q60/venue/%E1%84%82%E1%85%A9%E1%84%8B%E1%85%AF%E1%86%AB1.jpeg?ver=1656983783",http://www.nowonbook.com,새책방
348,4,노원문고 제5매장,노원구,노원구 상계로 59 동명빌딩 지하1층,37.65616028,127.0615152,,무료,02-932-3822,https://mblogthumb-phinf.pstatic.net/MjAxODA4MThfMjYw/MDAxNTM0NTc2MDQwMzA3.GbfQlz-88UTl2vlxbfAhjo6SySaLL8H96a6uHfoJNtMg.4EMN-LkuKs2ohJBc1BQWcK8e3vBa6iAE6qdIOC6yMXgg.JPEG.cyberyw/1534575257932.jpg?type=w800,http://www.nowonbook.com,새책방
349,4,노원문고 중계점,노원구,노원구 중계로 206 지하1층,37.65084171,127.0775257,,무료,02-2091-0633,https://thumb.store114.net/640x480/8726097_1622766.jpg,http://www.nowonbook.com,새책방
350,4,늘벗서점,관악구,관악구 신림로 83,37.47034117,126.9401232,,무료,02-887-4971,https://mblogthumb-phinf.pstatic.net/MjAxOTA3MTBfNTcg/MDAxNTYyNzM3MzcxNDYy.razkxicaz8Y5gYPp8dalkbV9UC6C1VwkNy-g6-xwa5og.BCdDafSO61vZgMM_4taQX7aWy0T7bW8QT0BRl0ThwDsg.JPEG.hereis5/IMG_3029.JPG?type=w800,https://nbcpa.co.kr/shop/,새책방
351,4,늘푸른글방,영등포구,영등포구 영등포로 418-1,37.51259902,126.9243748,,무료,02-841-5139,https://search.pstatic.net/common/?autoRotate=true&quality=100&type=f640_380&src=https%3A%2F%2Fldb-phinf.pstatic.net%2F20190130_34%2F1548831954775gDtTO_JPEG%2FnT-K0vD09rZid_cQQ1qFbZ4l.jpg,,새책방
352,4,니은서점,은평구,은평구 연서로26길 35,37.61514899,126.9221987,,무료,02-6084-8433,"https://image.bookshopmap.com/600,fit,q60/venue/book_shop_nieun_89948053_891459657964731_6683372855570462579_n.jpg",https://cafe.naver.com/bookshopnieun,새책방
353,4,다름상상,광진구,광진구 구의로16길 93,37.54146317,127.0946077,,무료,,https://modo-phinf.pstatic.net/20230218_129/1676687163867k3g5G_JPEG/mosao2n31k.jpeg?type=f320_320,https://www.instagram.com/darmsangsang,새책방
354,4,다모아헌책방,동작구,동작구 사당로17길 25,37.4842974,126.9735363,,무료,0507-1406-8571,https://search.pstatic.net/common/?src=https%3A%2F%2Fldb-phinf.pstatic.net%2F20200321_271%2F15847756718773y4Lu_JPEG%2Fyx-8bfEBthX9bvonbOUTdRVj.jpg,,헌책방
355,4,다산서적,관악구,관악구 대학6길 19,37.46893814,126.9365331,,무료,02-883-9321,https://search.pstatic.net/common/?src=https%3A%2F%2Fldb-phinf.pstatic.net%2F20191013_226%2F1570925538250fWsKC_JPEG%2FgryWIOyPRHzbNRl-7WSFFtd_.jpg,http://www.acegosi.com,새책방
356,4,다솜서점,관악구,관악구 난우10길 6 지하1층,37.47606536,126.9180205,,무료,02-864-1330,https://search.pstatic.net/common/?autoRotate=true&quality=100&type=f640_380&src=https%3A%2F%2Fldb-phinf.pstatic.net%2F20221201_42%2F1669866758786GBDFi_JPEG%2F1669866531849.jpg,,새책방
357,4,다솜서점,노원구,노원구 동일로 1677 제성빌딩 지하1층,37.67818419,127.0549684,,무료,02-932-5808,https://search.pstatic.net/common/?autoRotate=true&quality=100&type=f640_380&src=https%3A%2F%2Fldb-phinf.pstatic.net%2F20221201_42%2F1669866758786GBDFi_JPEG%2F1669866531849.jpg,,새책방
358,4,다시서점,강서구,강서구 공항대로8길 77-24,37.5574055,126.8129789,,무료,0507-1411-4869,https://mblogthumb-phinf.pstatic.net/MjAyMjEwMTNfMjkw/MDAxNjY1NjMxOTkzNDc3.IftBWQAwew9XXisskASuOAYyIST2VG-qGpQvVX9pqUgg.l4TIdiEMazWl9kBxk2WWVXbYJRBldzm5TcOS-4lyXgIg.PNG.seoul_library/%EC%84%9C%EC%9A%B8%ED%98%95%EC%B1%85%EB%B0%A9_%EC%84%9C%EC%A0%90%EC%86%8C%EA%B0%9C__%EB%8B%A4%EC%8B%9C%EC%84%9C%EC%A0%90_%EC%86%8C%EA%B0%9C2.png?type=w800,https://dasibookshop.com,새책방
359,4,다온책방,성북구,성북구  한천로68길 31,37.60915189,127.0658626,,무료,02-6014-1414 ,https://sbnet.or.kr/sbnet_wp/wp-content/uploads/2018/06/448b4ce0ec61e7b926beefb0717e537b.jpg,,새책방
360,4,달걀책방,서대문구,서대문구 성산로9길 43-35,37.56765993,126.9229877,,무료,070-8822-2425,https://img1.daumcdn.net/thumb/R1280x0.fpng/?fname=http://t1.daumcdn.net/brunch/service/guest/image/L6uEuHg4SMVXyct99WVCOpYC3HU.png,https://www.eggbookshop.com,새책방
361,4,달마헌책방,관악구,관악구 남부순환로 1925 지하 1층,37.4775252,126.9632763,,무료,02-811-1256,https://t1.daumcdn.net/cfile/blog/99D599335D5AB5742D,http://www.dharmabooks.co.kr,헌책방
362,4,당인리책발전소,마포구,마포구 월드컵로14길 10-8,37.555689,126.9111491,,무료,02-8702-1022,"https://image.bookshopmap.com/600,fit,q60/venue/danginbookplant-building.jpeg",https://www.bronteshop.co.kr,새책방
363,4,대광서림,중구,중구 청계천로 274 다9호,37.56942586,127.0080476,,무료,02-2272-4741,https://mblogthumb-phinf.pstatic.net/MjAxOTAzMTJfMzYg/MDAxNTUyMzgxMDI2NzQ1.QF-KFKYicKEXvHCQxrFYtVGyH4pfqD17NsJH2UKBGVQg.K-xHbg8XqQhJpLxjpiVSzwUp241SFPS2lhVtVBjcWp8g.JPEG.medicalforum/SE-e2d10db2-97b3-4119-9638-5331429b2f20.jpg?type=w800,,헌책방
364,4,대교서적,영등포구,영등포구 국제금융로7길 22 대교비상가 116호,37.52325044,126.9330741,,무료,0507-1392-6407,https://search.pstatic.net/common/?src=https%3A%2F%2Fldb-phinf.pstatic.net%2F20210117_93%2F1610881361486IS4pu_JPEG%2FyTBvONLX3EGLrMmVt3Tdjepb.jpg,,새책방
365,4,대륙서점,동작구,동작구 성대로 40,37.49894128,126.9332915,,무료,02-821-8878,"https://image.bookshopmap.com/600,fit,q60/venue/daerukbooks_121598893_998194650649205_5867044620012662778_n.jpg",https://www.instagram.com/daerukbooks,새책방
366,4,대림문고,영등포구,영등포구 대림로 199 건용빌딩,37.49856075,126.8979202,,무료,02-841-1101,https://search.pstatic.net/common/?autoRotate=true&quality=100&type=f640_380&src=https%3A%2F%2Fldb-phinf.pstatic.net%2F20150901_73%2F1441054963978kmuyy_JPEG%2F11849680_0.jpg,,새책방
367,4,대민문고,관악구,관악구 관악로 212 관악프라자 지하1층,37.48362314,126.9551835,,무료,02-875-5300,https://mblogthumb-phinf.pstatic.net/MjAxODAxMjZfMTEz/MDAxNTE2OTE0NTU1NjY5.oNXiGjCCluSGvHyahFa5G80KKzanY28pz2Sm3wOd5Mwg.0_nFR-CISRO2hof27RXrnFEZiunoXn75iOtf4bWHq2og.JPEG.kjiwon1018/2018-01-08-16-16-28.jpg?type=w800,,새책방
368,4,대승서적,종로구,종로구 율곡로14길 57,37.57377607,127.0041809,,무료,02-2277-0656,https://mblogthumb-phinf.pstatic.net/MjAyMzAyMDJfMjE4/MDAxNjc1MjY3MDk5MDk5.wpj8onx9Bjw_JXZgtdRWur5F_xhzw46uVQEcMGmxAWwg.YU7lJF53xbtrEE14EVwOdYwsToG_ARpCyw9iZz_FDR0g.JPEG.bluevisions/%ED%96%87%EB%B9%9B%EB%AC%B8%EA%B3%A0_(4).jpg?type=w800,,새책방
369,4,대영문고,강서구,강서구 양천로 669 2층,37.55185997,126.8712031,,무료,02-3663-7859,https://search.pstatic.net/common/?autoRotate=true&quality=100&type=f640_380&src=https%3A%2F%2Fldb-phinf.pstatic.net%2F20221222_279%2F1671697168013mRI58_JPEG%2FKakaoTalk_20221222_171505269.jpg,,새책방
370,4,대오서점,종로구,자하문로7길 55,37.57974782,126.9693065,,무료,02-735-1349,https://search.pstatic.net/common/?src=https%3A%2F%2Fldb-phinf.pstatic.net%2F20190128_299%2F1548687373319f16wR_JPEG%2FvvtF3NNy-WkyGIu2051cSH3n.jpeg.jpg,,새책방
371,4,대원서점,중구,중구 청계천로 274 다12호,37.56942586,127.0080476,,무료,02-2273-0109,https://search.pstatic.net/common/?autoRotate=true&quality=100&type=f640_380&src=https%3A%2F%2Fldb-phinf.pstatic.net%2F20190131_264%2F1548871653105sq7Yj_JPEG%2Fzzgv2IuHNnRHnCBCmqDzRDt4.jpg,,헌책방
372,4,대원서점,성북구,성북구 정릉로 241,37.60529785,127.010903,,무료,0507-1396-0660,https://search.pstatic.net/common/?autoRotate=true&quality=100&type=f640_380&src=https%3A%2F%2Fldb-phinf.pstatic.net%2F20190131_264%2F1548871653105sq7Yj_JPEG%2Fzzgv2IuHNnRHnCBCmqDzRDt4.jpg,,새책방
373,4,대원책문고,영등포구,영등포구 당산로45길 1 당산 삼성쉐르빌 205호,37.53323429,126.9005103,,무료,02-2671-2375 ,https://mblogthumb-phinf.pstatic.net/MjAyMjA4MjNfMjA3/MDAxNjYxMjYwNzY1NjAy.iWep5V8wnx5_1M4rkRuUWY9dKo90vEzzUdguAExfJiUg.s5YwZ7witDA9Hw2xqQLs4IzybIqO0JkkJu0QJRe-rcIg.JPEG.cnnjang/20220716%EF%BC%BF165920.jpg?type=w800,,새책방
374,4,대일서점,금천구,금천구 시흥대로 474,37.47586215,126.8990107,,무료,02-853-1948,https://dnvefa72aowie.cloudfront.net/business/bizPlatform/profile/14535024/1684208240348/NzgyOWY2OTE5MTZlMTIyOTIwMjM3MDIxN2UyNDMxMzQyZjYzMzJhZGY3YTNjODI5YmQwZTJlZWUyYTI3ODBlZV8wLmpwZWc=.jpeg?q=82&s=640x640&t=crop,,새책방
375,4,대지책문고,강서구,강서구 등촌로39길 13 지하1층,37.54552768,126.8614993,,무료,02-2644-2650,https://mblogthumb-phinf.pstatic.net/MjAyMTAyMTVfNTMg/MDAxNjEzMzk5Nzc2MzYx.rps35zPt47mUSj4Ac2Tb8o1ePWhmWu9gZd0epmr2I30g.mvjOoFMPXex1EalUGxptDZj-Y0yOKnatRsa4-debpE8g.JPEG.byun720/1613211449570.jpg?type=w800,,새책방
376,4,대천서점,관악구,관악구 남부순환로 1734 지하1층,37.48198569,126.9427729,,무료,02-878-7557,https://search.pstatic.net/common/?autoRotate=true&quality=100&type=f640_380&src=https%3A%2F%2Fldb-phinf.pstatic.net%2F20150831_181%2F1440998033404NNHB9_JPEG%2F106567464476194_0.jpg,,새책방
377,4,더레퍼런스,종로구,종로구 자하문로24길 44,37.58228897,126.9718052,,무료,070-4150-3105,https://www.the-ref.kr/data/file/program/1375734418_ualSw1BV_3fd047825189ece9822f8ee4ce84b85691867144.jpg,https://www.the-ref.kr,새책방
378,4,더레퍼런스(서소문점),중구,중구 덕수궁길 61 전시동 3층,37.56410607,126.9736993,,무료,,https://inmun360.culture.go.kr/upload/board/image/72/2372872_202209080824545680.png,https://www.the-ref.kr,새책방
379,4,더북소사이어티,종로구,종로구 자하문로19길 25 지하 1층,37.58213209,126.9695429,,무료,070-8621-5676 ,https://mblogthumb-phinf.pstatic.net/MjAxOTA5MTlfMjg2/MDAxNTY4ODY2NTc4NDkx.bve4eq25QdqwEDGKf4Byrj_GSTmvYpaUJwQKz-3oW-0g.6ZqqW1heaPkVfFaZrdF-JtBfxVmIQb02vIStX2QiMYUg.JPEG.seoul_library/Thebooksociety__14.jpg?type=w800,http://www.thebooksociety.org,새책방
380,4,더북스 신대방점,동작구,상도로 37,37.50001128,126.9246811,,무료,070-7574-4283,https://search.pstatic.net/common/?autoRotate=true&quality=100&type=f640_380&src=https%3A%2F%2Fldb-phinf.pstatic.net%2F20200315_23%2F1584243058539gM4pe_JPEG%2FHJblzm-ldR0KT8BCy2wICfcQ.jpg,,새책방
381,4,더북스 한길서점(방배),서초구,서초구 동작대로 132 안석빌딩 지하1층,37.48825796,126.9827699,,무료,02-591-2274,https://mblogthumb-phinf.pstatic.net/MjAyMTEwMDZfMTQ0/MDAxNjMzNTE0OTA5MzUx.s4ojo3i-Dg3gMCm-ruqCgQG5V_FpfRICb29M525SnSog.Rs3EcJSIrPAYWH84QSyYsPF9My2R_ASRSdpCADR9674g.JPEG.lhs080661/20211006%EF%BC%BF163209.jpg?type=w800,,새책방
382,4,더숲 초소책방,종로구,종로구 인왕산로 172,37.58595334,126.964277,,무료,02-735-0206,https://chosochaekbangs.files.wordpress.com/2020/12/newec9db4ebafb8eca7802.jpg,https://chosobooks.com/,새책방
383,4,덕인서림,중구,중구 청계천로 274 다32호,37.56942586,127.0080476,,무료,02-2273-8420,https://t1.daumcdn.net/cfile/tistory/99BCA8425AF9A9E135,,헌책방
384,4,도도봉봉,도봉구,도봉구 도봉로114길 57,37.64767751,127.0374983,,무료,0507-143-5335,https://mediahub.seoul.go.kr/uploads/mediahub/2022/08/yGHZUxCpQrCpMQudZufyoGBUkOOwOStu.JPG,https://m.blog.naver.com/dodobonbon,새책방
385,4,도토리책방,광진구,"서울 광진구 아차산로41길 7, 1층 101호 ",37.5381755,127.0787878,,무료,0507-1351-3573,https://search.pstatic.net/common/?src=https%3A%2F%2Fldb-phinf.pstatic.net%2F20240213_131%2F1707819317595avedr_JPEG%2FKakaoTalk_20240213_085521066_01.jpg,https://blog.naver.com/visionrim,새책방
386,4,도하서림,용산구,용산구 한강대로 104길 45 상아빌딩 401호,37.55057222,126.9746821,,무료,,https://mblogthumb-phinf.pstatic.net/MjAyMzAzMDZfMjU2/MDAxNjc4MDY1MDA0MzEx.Sjp47jwPgKSqgz3eTnmscfA2Hymsh2uAfYcTIVVpEDIg.gsCH09czeDQTPj-lQ8G-2dW8l789VXBx51KKkHc8dB0g.JPEG.dw033439/1678056034015%EF%BC%8D1.jpg?type=w800,https://dohabookstore.co.kr,새책방
387,4,도화북스(도화아파트먼트),마포구,마포구 도화2길 27,37.5395405,126.9494904,,무료,02-713-0227,"https://image.bookshopmap.com/600,fit,q60/venue/IMG_1745.jpg?ver=1650340861",https://dohwa-apartment.com,새책방
388,4,독립서점 화서가,강서구, 월정로30길 52 2층,37.53463977,126.8388072,,무료,,https://search.pstatic.net/common/?src=https%3A%2F%2Fldb-phinf.pstatic.net%2F20230129_178%2F1674953419043m63o8_JPEG%2F1674952428301.jpg,https://blog.naver.com/hwaseoga,새책방
389,4,독서관,마포구,동교로27길 41 1층 독서관,37.55968033,126.9214578,,무료,,https://search.pstatic.net/common/?src=https%3A%2F%2Fldb-phinf.pstatic.net%2F20240112_82%2F1705050011296rn9HJ_JPEG%2FKakaoTalk_20231201_171629127_02_-_%25BA%25B9%25BB%25E7%25BA%25BB.jpg,,새책방
390,4,동남서적,종로구,종로구 종로6가 267-1,37.57104979,127.006996,,무료,02-2266-0924,https://www.barovone.com/data/upload/company/%EC%A2%85%EB%A1%9C%EB%AC%B8%EA%B3%A0.jpg,,새책방
391,4,동네책방 원테이블,금천구,금천구 독산로8길 14,37.44934994,126.9063021,,무료,02-896-0512,"https://image.bookshopmap.com/600,fit,q60/venue/onetable_o_87755577_232759124429641_1896213711589654987_n.jpg?ver=1623119958",https://www.instagram.com/onetable_o,새책방
392,4,동네책방개똥이네책놀이터,마포구,마포구 월드컵로 128-3,37.55982606,126.9071049,,무료,02-338-0478,https://mblogthumb-phinf.pstatic.net/MjAyMTA2MTFfMTQg/MDAxNjIzNDA4MTI4MDcz.v4GdrNqBYjDMbFgXGK_Znyw_JZ09BrxwTjtGvESy9zYg.B4o_UKClW1sqvaWf4agWZ-6UTR--60FyiM8Rp_jSX5Ig.PNG.oinkhoney/SE-c9a29718-52de-4fb5-b1b3-5fff9c94159b.png?type=w800,http://cafe.naver.com/dongneabook,새책방
393,4,동방서적,구로구,구로구 경인로 219 지하1층,37.49681576,126.8450708,,무료,02-2616-9911,https://mblogthumb-phinf.pstatic.net/MjAxNzAxMDlfNCAg/MDAxNDgzOTQzODQ0Njgy.WzLVV4ce_YBi4lV0QUt-Sq2b1u3Yxo7l3IOPUd7EYqgg.1u7rcaWG4y9DH56VO38aydoc70cogKcbY3Wpqva6s44g.JPEG.bernouihotel/image_2433185121483943768139.jpg?type=w800,,새책방
394,4,동신서림,중구,중구 청계천로 246  다139호,37.56936838,127.0047211,,무료,02-2273-3411,https://seoulbookbogo.kr/front/img/spic02_1.png,,헌책방
395,4,동아서점,중구,중구 청계천로 274 다11호,37.56942586,127.0080476,,무료,02-2272-4013,https://search.pstatic.net/common/?autoRotate=true&quality=100&type=f640_380&src=https%3A%2F%2Fldb-phinf.pstatic.net%2F20190131_210%2F1548871706785f1pCT_JPEG%2FoTsooWi7x9PWUjzQ0ZjsjbW7.jpg,,헌책방
396,4,동아서점,도봉구,도봉구 덕릉로 253,37.64029729,127.0393961,,무료,02-904-1360,https://search.pstatic.net/common/?autoRotate=true&quality=100&type=f640_380&src=https%3A%2F%2Fldb-phinf.pstatic.net%2F20190131_210%2F1548871706785f1pCT_JPEG%2FoTsooWi7x9PWUjzQ0ZjsjbW7.jpg,,새책방
397,4,동아서점,강남구,강남구 압구정로 29길 68,37.53253638,127.0291865,,무료,02-545-0948,https://search.pstatic.net/common/?autoRotate=true&quality=100&type=f640_380&src=https%3A%2F%2Fldb-phinf.pstatic.net%2F20190131_210%2F1548871706785f1pCT_JPEG%2FoTsooWi7x9PWUjzQ0ZjsjbW7.jpg,,새책방
398,4,동양서림,종로구,종로구 창경궁로 271-1,37.58556826,127.0006014,,무료,02-762-0715,https://mblogthumb-phinf.pstatic.net/MjAxOTA2MTBfMTI2/MDAxNTYwMTY0MDE3Nzgy.dCU6xlfMQe4yt2DvuqdKS77tdbPHVeJqrMaRO2sbgssg.2GdSNhJCMTAMnULeFrXhpE4Hg5Z9nVq3P3Nts7CMKp4g.JPEG.seoul_library/SE-a5e8f851-3a7e-41e2-b478-01882f005b68.jpg?type=w800,https://blog.naver.com/dilek_choi,새책방
399,4,동일서점프라자,금천구,금천구 금하로 771,37.45050633,126.9155489,,무료,02-802-7446,https://mblogthumb-phinf.pstatic.net/MjAyMTA1MDRfMyAg/MDAxNjIwMTA0NzU3NjY5.NIyhdsBUGyPsYP1NeOW0dRr7aJUYx-_mlXbbdVp8cPIg.1TLeqblSiEJytH5_hVC3oWW04EKUFn_I0naapK9dpNcg.JPEG.sdmstory/_REE8699.jpg?type=w800,,새책방
400,4,동지서적,종로구,종로구 김상옥로 64-1 여양진씨대종회 회관,37.57336582,127.0048969,,무료,02-762-7596,https://map3.daumcdn.net/map_roadview/2022/09/9131677/2_100129_9131677_20220919003100_cube/left_1200.jpg,,새책방
401,4,두나서점(도곡점),강남구,강남구 선릉로 325 지하1층,37.49859224,127.0515659,,무료,02-561-4326,https://www.seoulbookbogo.kr/front/img/2spic04_1.png,,새책방
402,4,드림서점,관악구,관악구 은천로25길 27 하우젠빌 104호,37.48794795,126.9493096,,무료,02-887-4940,https://mblogthumb-phinf.pstatic.net/MjAxOTA1MTBfMjE2/MDAxNTU3NDU0ODgwNjY4.P1lGA9gkkUz370NZ2mZCdCDDpghAMK6YsADroOMAUvQg.zMCcfjII7VSKGXpj1rFa67e-ravGwv7XzLJGs72xaxog.JPEG.kbcheckcard/2.%EC%B4%88%EC%9B%90%EC%84%9C%EC%A0%90.JPG?type=w800,,새책방
403,4,디자인북,마포구,마포구 동교로 148-8,37.55501333,126.9186372,,무료,02-333-0342,"https://image.bookshopmap.com/600,fit,q60/venue/inabooks_15306518_199105787163511_4407194688365264896_n.jpg",http://designbook.co.kr/,새책방
404,4,땡스북스,마포구,마포구 양화로6길 57-6,37.54886806,126.9177079,,무료,02-325-0321,https://ak-d.tripcdn.com/images/1i63v223488xjxl2o7131.jpg?proc=source/trip,http://www.thanksbooks.com,새책방
405,4,라이너노트,마포구,마포구 양화로15안길 6,37.55446549,126.9188414,,무료,070-7730-2463,https://mblogthumb-phinf.pstatic.net/20160621_144/pageturner_kr_1466437993970R8wcG_JPEG/%C0%BD%BE%C7%BC%AD%C1%A1_%B6%F3%C0%CC%B3%CA_%B3%EB%C6%AE.jpg?type=w800,https://smartstore.naver.com/linernote,새책방
406,4,로뎀서적,강서구,강서구 월정로 128-1 지하1층,37.53063817,126.8381598,,무료,02-2699-5365,https://search.pstatic.net/common/?src=https%3A%2F%2Fldb-phinf.pstatic.net%2F20190128_138%2F1548650187223Inwnx_JPEG%2F8ZvfDUGWTfqULgiXqaaptZE1.jpeg.jpg,,새책방
407,4,로우북스,마포구,마포구 포은로 56,37.552386,126.9067828,,무료,,https://bookshopmap.s3.ap-northeast-2.amazonaws.com/venue/KakaoTalk_20220102_162543932_23c34a80.jpeg?ver=1641197645,https://lowbooks.notion.site,새책방
408,4,로프 에디션스,마포구,마포구 희우정로16길 50,37.55474866,126.9047167,,무료,0507-1325-5519,https://mblogthumb-phinf.pstatic.net/MjAyMTAzMDlfOTcg/MDAxNjE1Mjk0Njc5MTY3.VlAcWTBy9u02-Rhvm8jlyVQxNq8qdMK-3KoWNsXYjiQg.14sOAXHrDjw8hQezg4TUbr9qwnCR-bX1yybE-jdTrWgg.JPEG.ottff123/SE-22B37272-0C55-4D43-8D18-79E008692343.jpg?type=w800,https://www.instagram.com/ropeeditions/,새책방
409,4,로프트북스,종로구,종로구 창의문로 129 2층,37.5923736,126.9659978,,무료,0507-1310-3225,https://storage.heypop.kr/assets/2021/12/02170437/IMG_5462.jpeg,https://brunch.co.kr/@analogcabinet,새책방
410,4,마들문고,노원구,노원구 동일로 1550 고려프라자빌딩 지하1층,37.66691162,127.0575497,,무료,02-938-0028,https://search.pstatic.net/common/?src=https%3A%2F%2Fldb-phinf.pstatic.net%2F20220608_200%2F16546572881927VbWn_JPEG%2FKakaoTalk_20220608_115743820.jpg,,새책방
411,4,마음책방 서가는,종로구,종로구 창경궁로35길 21,37.58698605,127.0017643,,무료,070-8818-0137 ,https://mblogthumb-phinf.pstatic.net/MjAxOTA3MTdfMTgz/MDAxNTYzMzYzNDk2Nzky.hkiddVGKUhFXSpGSvhixgpajS66NtscgAfB4zLhwusIg.sPjZypwRrz3ZzxuKiWwxVUYPLaE6RZ8ceGU98VkCsrgg.JPEG.seoul_library/MindstoreS__51.jpg?type=w800,https://smartstore.naver.com/houseinmind,새책방
412,4,마이어 날다,용산구,용산구 서빙고로 17 용산센트럴파크 해링턴스퀘어 상가 Mall D 2층 43호,37.52690561,126.9665662,,무료,0507-1324-7487,https://bookshopmap.s3.ap-northeast-2.amazonaws.com/venue/meiernalda.jpeg,https://blog.naver.com/meiernalda,새책방
413,4,마이페이버릿,종로구,종로구 자하문로 121 지하 1층,37.58686372,126.9694751,,무료,02-544-9319,https://search.pstatic.net/common/?autoRotate=true&quality=100&type=f640_380&src=https%3A%2F%2Fldb-phinf.pstatic.net%2F20230119_32%2F1674117520214dnQGb_JPEG%2F20230119_173732.jpg,http://www.alicesugar.com/,새책방
414,4,마중물서점,송파구,송파구 삼전로 99,37.50726237,127.0901339,,무료,02-425-7279,https://mblogthumb-phinf.pstatic.net/MjAyMjAyMjhfMTU0/MDAxNjQ2MDE2MTk1NzI0.K7qT3ZOyzxebBwTG-05kUrQZ_mGbZffGvnfQx7MvuN4g.Z7XDK2JEa46H1y66IebOerA0Df8NwwdhJajAphs4Z24g.JPEG.mijeongchoi/IMG_0783.JPG?type=w800,,새책방
415,4,마포문고,마포구,마포구 큰우물로 60 지하1층,37.54182496,126.9448138,,무료,0507-1315-0066,https://search.pstatic.net/common/?autoRotate=true&quality=100&type=f640_380&src=https%3A%2F%2Fldb-phinf.pstatic.net%2F20171223_24%2F1514011250628HwScO_JPEG%2FiJsbB525pj45Ahbj7pLfx-_h.jpg,https://www.instagram.com/mapomoongo,새책방
416,4,마포문구문고,강서구,강서구 화곡로 404 1층,37.55924246,126.8544406,,무료,02-3664-1704,https://search.pstatic.net/common/?src=https%3A%2F%2Fldb-phinf.pstatic.net%2F20200315_254%2F1584284261500dEYiN_JPEG%2F18IzH8v7MRCdw1bDrnR8XtfR.jpg,,새책방
