id,category_id,name,district,address,latitude,longitude,work_time,price,image_url,page_url,description,phone_number
1,3,쉘터오브메모리즈,용산구,"서울시 용산구 용산동6가 11-376, 국립중앙박물관 입구 건너편 정류장",37.5207967,126.9789582,연중무휴,무료,https://news.seoul.go.kr/culture/files/2016/12/58524894dc27f0.92174645.jpg,https://design.seoul.go.kr/gallery/main/main.jsp,,
2,3,쉘터오브메모리즈,용산구,"서울시 용산구 용산동6가 11-375, 국립중앙박물관 입구 정류장",37.52070673,126.9796763,연중무휴,무료,https://news.seoul.go.kr/culture/files/2016/12/58524894dc27f0.92174645.jpg,https://design.seoul.go.kr/gallery/main/main.jsp,,
3,3,남산의 생태,용산구,"서울시 용산구 후암동 406-98, 남산소월길, 후암약수터 버스정류장",37.54846347,126.984184,연중무휴,무료,https://publicart.eseoul.go.kr/common/file/getImage.do?fileSeq=988,https://design.seoul.go.kr/gallery/main/main.jsp,,
4,3,회화적 몽타주,용산구,"서울시 용산구 후암동 30-84, 남산소월길, 남산도서관 앞 버스정류장",37.5527324,126.9811277,연중무휴,무료,https://news.seoul.go.kr/culture/files/2016/12/585244b36f07b8.24775311.jpg,https://design.seoul.go.kr/gallery/main/main.jsp,,
5,3,휴식,용산구,"서울시 용산구 용산동2가 1-1144, 남산소월길, 보성여중고 버스정류장",37.54633991,126.9856097,연중무휴,무료,https://publicart.eseoul.go.kr/common/file/getImage.do?fileSeq=987,https://design.seoul.go.kr/gallery/main/main.jsp,,
6,3,쉼표 또 다른 여정,용산구,"서울시 용산구 이태원동 259-16, 남산소월길, 하얏트호텔 버스정류장",37.54297029,126.994588,연중무휴,무료,https://news.seoul.go.kr/culture/files/2016/12/585247e2e4c100.65044532.jpg,https://design.seoul.go.kr/gallery/main/main.jsp,,
7,3,삶-소통,양천구,"서울시 양천구 목동 921, 오목공원",37.52800106,126.8732849,연중무휴,무료,https://publicart.eseoul.go.kr/common/file/getImage.do?fileSeq=11178,https://design.seoul.go.kr/gallery/main/main.jsp,,
8,3,산-하늘문,마포구,"서울시 마포구 상암동 481-72, 하늘공원 상부",37.56739298,126.8865865,연중무휴,무료,https://publicart.eseoul.go.kr/common/file/getImage.do?fileSeq=1005,https://design.seoul.go.kr/gallery/main/main.jsp,,
9,3,생명의 벽,강남구,"서울시 강남구 대치동 1003, (구)메디슨 사옥 외벽, (현)MDM타워 외벽",37.50685273,127.0662509,연중무휴,무료,https://publicart.eseoul.go.kr/common/file/getImage.do?fileSeq=990,https://design.seoul.go.kr/gallery/main/main.jsp,,
10,3,풍물+류를 더하다,종로구,"서울시 종로구 경운동 95, 3호선 안국역 6번출구 지하",37.57633683,126.985164,연중무휴,무료,https://publicart.eseoul.go.kr/common/file/getImage.do?fileSeq=11180,https://design.seoul.go.kr/gallery/main/main.jsp,,
11,3,일어서自! 초인상,광진구,"서울시 광진구 능동18, 어린이대공원 내 (음악분수 지나)",37.54956072,127.0810294,연중무휴,무료,https://publicart.eseoul.go.kr/common/file/getImage.do?fileSeq=1009,https://design.seoul.go.kr/gallery/main/main.jsp,,
12,3,"서울숲이 들려주는 이야기, 러브레터",성동구,"서울시 성동구 성수동1가 685-6, 서울숲 야외무대 부근(어린이 모래놀이터)",37.54637553,127.0381471,연중무휴,무료,https://publicart.eseoul.go.kr/common/file/getImage.do?fileSeq=1007,https://design.seoul.go.kr/gallery/main/main.jsp,,
13,3,바람의 길,영등포구,"서울시 영등포구 여의도동 84, 마포대교 남단 사거리",37.52999983,126.9299412,연중무휴,무료,https://publicart.eseoul.go.kr/common/file/getImage.do?fileSeq=1006,https://design.seoul.go.kr/gallery/main/main.jsp,,
14,3,북두팔성,종로구,"서울시 종로구 화동 2, 정독도서관 서측방향 옹벽(화동 23-16 맞은편 석축)",37.58078155,126.9827571,연중무휴,무료,https://publicart.eseoul.go.kr/common/file/getImage.do?fileSeq=1018,https://design.seoul.go.kr/gallery/main/main.jsp,,
15,3,자연연상,마포구,"서울시 마포구 상암동 1535, 평화공원 에너지센터 옆 평화잔디광장 내",37.56327203,126.8926784,연중무휴,무료,https://publicart.eseoul.go.kr/common/file/getImage.do?fileSeq=1019,https://design.seoul.go.kr/gallery/main/main.jsp,,
16,3,느티나무 형제 마루공원,서초구,"서울시 서초구 염곡동 56-3, 느티나무어린이공원",37.46386011,127.0544663,연중무휴,무료,https://publicart.eseoul.go.kr/common/file/getImage.do?fileSeq=993,https://design.seoul.go.kr/gallery/main/main.jsp,,
17,3,꿈꾸는 피아노,강북구,"서울시 강북구 수유동 551-19, 인수초등학교 내 운동장 옆 벽면",37.64282729,127.009983,연중무휴,무료,https://publicart.eseoul.go.kr/common/file/getImage.do?fileSeq=1011,https://design.seoul.go.kr/gallery/main/main.jsp,,
18,3,투명 변조기,종로구,"서울시 종로구 사직동 1-28, 서울시교육청어린이도서관 울타리담장 및 석축",37.57593651,126.9672638,연중무휴,무료,https://publicart.eseoul.go.kr/common/file/getImage.do?fileSeq=995,https://design.seoul.go.kr/gallery/main/main.jsp,,
19,3,Transparence 투명함,성동구,"서울시 성동구 용답동 250-20, 서울하수도과학관 앞",37.55815153,127.0577745,연중무휴,무료,https://publicart.eseoul.go.kr/common/file/getImage.do?fileSeq=996,https://design.seoul.go.kr/gallery/main/main.jsp,성동구 마장동 610-8 (도시관리공단 인근.  용두동 34번지와 마장동 470번지 사이 건널목) 에서 2019년에 성동구 자동차시장길49 하수도과학관으로 이전 완료,
20,3,일획을 긋다,종로구,"서울시 종로구 관훈동 139-3, 139-3, 136_동덕아트 갤러리 앞(북인사마당 입구)",37.57522302,126.9832021,연중무휴,무료,https://publicart.eseoul.go.kr/common/file/getImage.do?fileSeq=998,https://design.seoul.go.kr/gallery/main/main.jsp,,
21,3,수화-세상에서 가장 조용하고 아름다운 말,종로구,"서울시 종로구 신교동 1-1, 서울농학교 정문 앞 좌측 담장",37.58503808,126.9685806,연중무휴,무료,https://publicart.eseoul.go.kr/common/file/getImage.do?fileSeq=997,https://design.seoul.go.kr/gallery/main/main.jsp,,
22,3,FLOW,종로구,"서울시 종로구 신문로1가 226, 흥국생명 앞 버스정류장",37.56972832,126.9722879,연중무휴,무료,https://publicart.eseoul.go.kr/common/file/getImage.do?fileSeq=1021,https://design.seoul.go.kr/gallery/main/main.jsp,,
23,3,"Zari0801(예술의 길, 사색의 자리)",중구,"서울시 중구 서소문동 37-4일대, 덕수궁 돌담길",37.56481093,126.9745747,연중무휴,무료,https://publicart.eseoul.go.kr/common/file/getImage.do?fileSeq=980,https://design.seoul.go.kr/gallery/main/main.jsp,,
24,3,인왕산에서 굴러온 바위,종로구,"서울시 종로구 청운동 7-4, 청운공원",37.5907422,126.9663861,연중무휴,무료,https://publicart.eseoul.go.kr/common/file/getImage.do?fileSeq=975,https://design.seoul.go.kr/gallery/main/main.jsp,,
25,3,Bar Code 빛의 문,성동구,"서울시 성동구 옥수동 168-1, 3호선 옥수역, 3번 출구~4번 출구 사이(옥수역 교차로 상부)",37.53992009,127.017224,연중무휴,무료,https://publicart.eseoul.go.kr/common/file/getImage.do?fileSeq=976,https://design.seoul.go.kr/gallery/main/main.jsp,,
26,3,"Zari0804-Zari0805(예술의 길, 사색의 자리)",중구,"서울시 중구 서소문동 37-4일대, 덕수궁 돌담길",37.56481093,126.9745747,연중무휴,무료,https://publicart.eseoul.go.kr/common/file/getImage.do?fileSeq=982,https://design.seoul.go.kr/gallery/main/main.jsp,,
27,3,스트라이프;속도,성동구,"서울시 성동구 옥수동 168-1, 3호선 옥수역, 교대-오금방향 승강장",37.53992009,127.017224,연중무휴,무료,https://publicart.eseoul.go.kr/common/file/getImage.do?fileSeq=979,https://design.seoul.go.kr/gallery/main/main.jsp,,
28,3,"Zari0806-Zari0807(예술의 길, 사색의 자리)",중구,"서울시 중구 서소문동 37-4일대, 덕수궁 돌담길",37.56481093,126.9745747,연중무휴,무료,https://publicart.eseoul.go.kr/common/file/getImage.do?fileSeq=984,https://design.seoul.go.kr/gallery/main/main.jsp,,
29,3,시간은 강처럼 흐른다,종로구,"서울시 종로구 신문로1가 226, 흥국생명 앞",37.56972832,126.9722879,연중무휴,무료,https://publicart.eseoul.go.kr/common/file/getImage.do?fileSeq=1020,https://design.seoul.go.kr/gallery/main/main.jsp,,
30,3,해머링맨(이전설치),종로구,"서울시 종로구 신문로1가 226, 흥국생명 앞",37.56972832,126.9722879,연중무휴,무료,https://publicart.eseoul.go.kr/common/file/getImage.do?fileSeq=1022,https://design.seoul.go.kr/gallery/main/main.jsp,,
31,3,무제 (아트쉘터),종로구,"서울시 종로구 신문로2가 1-389, 서울역사박물관 앞 버스정류장",37.56997334,126.9713068,연중무휴,무료,https://publicart.eseoul.go.kr/common/file/getImage.do?fileSeq=1024,https://design.seoul.go.kr/gallery/main/main.jsp,,
32,3,먼 곳에서 오는 바람,성동구,"서울시 성동구 성수동 1가 683-4, 서울숲 내 바람의 언덕(성수대교 북단 교차로 지나서)",37.54357347,127.034484,연중무휴,무료,https://publicart.eseoul.go.kr/common/file/getImage.do?fileSeq=1026,https://design.seoul.go.kr/gallery/main/main.jsp,,
33,3,"Zari0802-Zari0803(예술의 길, 사색의 자리)",중구,"서울시 중구 서소문동 37-7, 덕수궁돌담길",37.56471496,126.9740801,연중무휴,무료,https://publicart.eseoul.go.kr/common/file/getImage.do?fileSeq=981,https://design.seoul.go.kr/gallery/main/main.jsp,,
34,3,화분(1-29),성동구,"서울시 성동구 옥수동168-1, 3호선 옥수역, 교대-오금방향 승강장",37.53992009,127.017224,연중무휴,무료,https://publicart.eseoul.go.kr/common/file/getImage.do?fileSeq=11176,https://design.seoul.go.kr/gallery/main/main.jsp,"화분 작품의 일부인 1-4는 계단면 에스컬레이터 설치를 위해 철거예정(2020 예정이었으나 2021으로 연기됨), 작가의 동의를 필했음",
35,3,"점자-만지는 글, 아름다운 기억",종로구,"서울시 종로구 신교동 1-4, 서울맹학교 정문 앞 우측 담장",37.58478894,126.9675451,연중무휴,무료,https://publicart.eseoul.go.kr/common/file/getImage.do?fileSeq=994,https://design.seoul.go.kr/gallery/main/main.jsp,,
36,1,축구(송파여성축구장),송파구,서울특별시 송파구 방이동88,37.52103148,127.1161651,"월, 금 10:00~12:00",유료,https://images.unsplash.com/photo-1551958219-acbc608c6377?auto=format&fit=crop&q=80&w=1170&ixlib=rb-4.0.3&ixid=M3wxMjA3fDB8MHxwaG90by1wYWdlfHx8fGVufDB8fHx8fA%3D%3D,,정확한 가격은 지자체에 문의,
37,1,특수체육(하상장애인복지관),강남구,서울특별시 강남구 개포로613,37.49255359,127.0751317,화 15:30~16:20 / 화 16:20~17:00,유료,https://img.freepik.com/free-photo/full-shot-friends-playing-basketball-together_23-2149392042.jpg?w=1060&t=st=1698657763~exp=1698658363~hmac=489643b18a892a3e188b897428724d75c9e941d121e9fea9916c53af9bb537d4,http://www.hasang.org/main/main.php,정확한 가격은 지자체에 문의,02-451-6000
38,1,기초체력(노들나루공원),동작구,서울특별시 동작구 노량진로 247,37.51453063,126.9524302,화 10:00~11:00,유료,https://images.unsplash.com/photo-1487956382158-bb926046304a?auto=format&fit=crop&q=80&w=1171&ixlib=rb-4.0.3&ixid=M3wxMjA3fDB8MHxwaG90by1wYWdlfHx8fGVufDB8fHx8fA%3D%3D,www.dongjak.go.kr/healthcare/main/main.do,정확한 가격은 지자체에 문의,02-820-9435
39,1,생활체조(사당분소),동작구,서울특별시 동작구 사당로 253-3,37.4836744,126.9758707,금 13:00~13:40 / 화 13:40~14:20,유료,https://img.freepik.com/free-photo/men-and-women-warm-up-before-and-after-exercising_1150-23003.jpg?w=1060&t=st=1698655137~exp=1698655737~hmac=fbcb731e03e38413e76c25c99f1c393cde5bbd5247d2dd3ec385c04c355d58fe,,정확한 가격은 지자체에 문의,02-820-9644
40,1,"스트레칭, 근력운동(상도어울마당)",동작구,서울특별시 동작구 성대로 180,37.49925547,126.9403722,"화, 목 14:00~14:45 / 화, 목 15:00~15:40",유료,https://images.unsplash.com/photo-1517963879433-6ad2b056d712?auto=format&fit=crop&q=80&w=1170&ixlib=rb-4.0.3&ixid=M3wxMjA3fDB8MHxwaG90by1wYWdlfHx8fGVufDB8fHx8fA%3D%3D,www.dongjak.go.kr/healthcare/main/main.do,정확한 가격은 지자체에 문의,
41,1,요가(사당롯데캐슬 아파트),동작구,"서울특별시 동작구 사당로27길 190, 106동 지하2층",37.49095711,126.9715874,"수, 금 11:00~11:45",유료,https://images.unsplash.com/photo-1544367567-0f2fcb009e0b?auto=format&fit=crop&q=80&w=1220&ixlib=rb-4.0.3&ixid=M3wxMjA3fDB8MHxwaG90by1wYWdlfHx8fGVufDB8fHx8fA%3D%3D,,정확한 가격은 지자체에 문의,
42,1,축구(노들나루공원잔디구장),동작구,서울특별시 동작구 노량진로 247,37.51453063,126.9524302,"목, 금 10:00~12:00",유료,https://images.unsplash.com/photo-1551958219-acbc608c6377?auto=format&fit=crop&q=80&w=1170&ixlib=rb-4.0.3&ixid=M3wxMjA3fDB8MHxwaG90by1wYWdlfHx8fGVufDB8fHx8fA%3D%3D,,정확한 가격은 지자체에 문의,
43,1,"헬스,필라테스(대림1동 주민자치센터)",영등포구,서울특별시 영등포구 디지털로 441 대림제1동 사무소 체육관3층,37.49545723,126.905842,월 09:50~10:30 / 월 10:30~11:10,유료,https://img.freepik.com/free-photo/woman-with-trainer-practising-yoga_1303-14852.jpg?w=1060&t=st=1698656220~exp=1698656820~hmac=0f3694f5ee6513e12f8ef054465674fec618e47e056bd9d7756ec1dadd3de5ea,,정확한 가격은 지자체에 문의,02-2670-1379
44,1,헬스(신길7동주민센터),영등포구,서울특별시 영등포구 여의대방로43길 10,37.50639203,126.9215141,수 10:00~10:40 / 수 10:40~11:20,유료,https://images.unsplash.com/photo-1517963879433-6ad2b056d712?auto=format&fit=crop&q=80&w=1170&ixlib=rb-4.0.3&ixid=M3wxMjA3fDB8MHxwaG90by1wYWdlfHx8fGVufDB8fHx8fA%3D%3D,,정확한 가격은 지자체에 문의,02-2670-1365
45,1,"스트레칭,헬스(영등포구자치회관헬스장)",영등포구,서울특별시 영등포구 국회대로44길4,37.52538799,126.9036383,화 09:30~10:10 / 화 10:10~10:40,유료,https://images.unsplash.com/photo-1517963879433-6ad2b056d712?auto=format&fit=crop&q=80&w=1170&ixlib=rb-4.0.3&ixid=M3wxMjA3fDB8MHxwaG90by1wYWdlfHx8fGVufDB8fHx8fA%3D%3D,,정확한 가격은 지자체에 문의,02-2068-8810
46,1,"스트레칭,헬스(대림3동헬스장)",영등포구,서울특별시 영등포구 대림로 197,37.49831352,126.8980344,"월, 목 09:00~09:40",유료,https://images.unsplash.com/photo-1517963879433-6ad2b056d712?auto=format&fit=crop&q=80&w=1170&ixlib=rb-4.0.3&ixid=M3wxMjA3fDB8MHxwaG90by1wYWdlfHx8fGVufDB8fHx8fA%3D%3D,,정확한 가격은 지자체에 문의,02-843-5536
47,1,생활체육(모랫말꿈터),영등포구,서울특별시 영등포구 도영로11길 11,37.51062509,126.8969571,수 12:50~13:30 / 13:30~14:10,유료,https://images.unsplash.com/photo-1487956382158-bb926046304a?auto=format&fit=crop&q=80&w=1171&ixlib=rb-4.0.3&ixid=M3wxMjA3fDB8MHxwaG90by1wYWdlfHx8fGVufDB8fHx8fA%3D%3D,,정확한 가격은 지자체에 문의,
48,1,"스트레칭,헬스(도림동자치센터 헬스장)",영등포구,서울특별시 영등포구 도영로7길 10,37.5094934,126.8959996,수 09:20~10:10 / 수 10:10~10:40,유료,https://images.unsplash.com/photo-1517963879433-6ad2b056d712?auto=format&fit=crop&q=80&w=1170&ixlib=rb-4.0.3&ixid=M3wxMjA3fDB8MHxwaG90by1wYWdlfHx8fGVufDB8fHx8fA%3D%3D,,정확한 가격은 지자체에 문의,02-832-1780
49,1,"스트레칭,헬스(신길3동주민센터 헬스장)",영등포구,서울특별시 영등포구 신길로41라길 13-8,37.50729867,126.9077496,화 09:50~10:30 / 10:30~11:10,유료,https://images.unsplash.com/photo-1517963879433-6ad2b056d712?auto=format&fit=crop&q=80&w=1170&ixlib=rb-4.0.3&ixid=M3wxMjA3fDB8MHxwaG90by1wYWdlfHx8fGVufDB8fHx8fA%3D%3D,,정확한 가격은 지자체에 문의,02-846-9697
50,1,"스트레칭,생활체조(양평동헬스장)",영등포구,서울특별시 영등포구 선유서로 34길 10 4층,37.5268695,126.8874353,월 09:50~10:30 / 10:30~11:10,유료,https://images.unsplash.com/photo-1552196563-55cd4e45efb3?auto=format&fit=crop&q=80&w=1326&ixlib=rb-4.0.3&ixid=M3wxMjA3fDB8MHxwaG90by1wYWdlfHx8fGVufDB8fHx8fA%3D%3D,,정확한 가격은 지자체에 문의,
51,1,헬스(대림1동 주민자치센터),영등포구,서울특별시 영등포구 디지털로 441 대림제1동 사무소 체육관3층,37.49545723,126.905842,수 09:50~10:30 / 10:30~11:10,유료,https://images.unsplash.com/photo-1517963879433-6ad2b056d712?auto=format&fit=crop&q=80&w=1170&ixlib=rb-4.0.3&ixid=M3wxMjA3fDB8MHxwaG90by1wYWdlfHx8fGVufDB8fHx8fA%3D%3D,,정확한 가격은 지자체에 문의,02-2670-1379
52,1,배구(구로구민체육센터),구로구,서울특별시 구로구 고척로45길 39,37.50658124,126.8532759,"월, 수, 금 10:00~12:00",유료,https://images.unsplash.com/photo-1612872087720-bb876e2e67d1?auto=format&fit=crop&q=80&w=1307&ixlib=rb-4.0.3&ixid=M3wxMjA3fDB8MHxwaG90by1wYWdlfHx8fGVufDB8fHx8fA%3D%3D,https://www.gurosisul.or.kr/mod.asp?m=business&s=b01,정확한 가격은 지자체에 문의,02-2681-9595
53,1,헬스(G밸리보건지소),구로구,"서울특별시 구로구 디지털로 243, 213호(구로동, 지하이시티)",37.48199214,126.8923489,"화, 목 10:00~11:30",유료,https://images.unsplash.com/photo-1517963879433-6ad2b056d712?auto=format&fit=crop&q=80&w=1170&ixlib=rb-4.0.3&ixid=M3wxMjA3fDB8MHxwaG90by1wYWdlfHx8fGVufDB8fHx8fA%3D%3D,https://pf.kakao.com/_XJaxdK,정확한 가격은 지자체에 문의,02)860-8174
54,1,특수체육(기쁜우리복지관),강서구,서울특별시 강서구 허준로65,37.56927822,126.8488644,화 10:30~11:20,유료,https://img.freepik.com/free-photo/full-shot-friends-playing-basketball-together_23-2149392042.jpg?w=1060&t=st=1698657763~exp=1698658363~hmac=489643b18a892a3e188b897428724d75c9e941d121e9fea9916c53af9bb537d4,,정확한 가격은 지자체에 문의,02-3665-3831
55,1,스트레칭(우장산동주민센터),강서구,서울특별시 강서구 우현로 34,37.54828859,126.8418363,금 14:00~14:50,유료,https://images.unsplash.com/photo-1552196563-55cd4e45efb3?auto=format&fit=crop&q=80&w=1326&ixlib=rb-4.0.3&ixid=M3wxMjA3fDB8MHxwaG90by1wYWdlfHx8fGVufDB8fHx8fA%3D%3D,,정확한 가격은 지자체에 문의,02-2600-7745
56,1,스트레칭(가양2동주민센터),강서구,서울특별시 강서구 허준로 93,37.56739892,126.8512712,금 10:00~10:50,유료,https://images.unsplash.com/photo-1552196563-55cd4e45efb3?auto=format&fit=crop&q=80&w=1326&ixlib=rb-4.0.3&ixid=M3wxMjA3fDB8MHxwaG90by1wYWdlfHx8fGVufDB8fHx8fA%3D%3D,,정확한 가격은 지자체에 문의,02-2600-7808
57,1,스트레칭(등촌9복지관),강서구,서울특별시 강서구 화곡로63가길 92-(등촌3동 704) 주공9단지,37.5619516,126.8502091,목 15:10~16:40,유료,https://images.unsplash.com/photo-1552196563-55cd4e45efb3?auto=format&fit=crop&q=80&w=1326&ixlib=rb-4.0.3&ixid=M3wxMjA3fDB8MHxwaG90by1wYWdlfHx8fGVufDB8fHx8fA%3D%3D,,정확한 가격은 지자체에 문의,02-2658-4129
58,1,헬스(공항동주민센터),강서구,서울특별시 강서구 송정로 45,37.55878281,126.8100743,"목, 금 10:00~11:20/ 수 14:00~15:00",유료,https://images.unsplash.com/photo-1517963879433-6ad2b056d712?auto=format&fit=crop&q=80&w=1170&ixlib=rb-4.0.3&ixid=M3wxMjA3fDB8MHxwaG90by1wYWdlfHx8fGVufDB8fHx8fA%3D%3D,,정확한 가격은 지자체에 문의,02-2600-7935
59,1,헬스(염창동주민센터),강서구,서울특별시 강서구 양천로67가길 63,37.55377136,126.8709657,월10:00~11:00 / 수 10:00~11:20 / 금14:00~15:00,유료,https://images.unsplash.com/photo-1517963879433-6ad2b056d712?auto=format&fit=crop&q=80&w=1170&ixlib=rb-4.0.3&ixid=M3wxMjA3fDB8MHxwaG90by1wYWdlfHx8fGVufDB8fHx8fA%3D%3D,,정확한 가격은 지자체에 문의,02-2600-7306
60,1,헬스(우장산동주민센터),강서구,서울특별시 강서구 우현로 34,37.54828859,126.8418363,"화, 금 15:00~16:00",유료,https://images.unsplash.com/photo-1517963879433-6ad2b056d712?auto=format&fit=crop&q=80&w=1170&ixlib=rb-4.0.3&ixid=M3wxMjA3fDB8MHxwaG90by1wYWdlfHx8fGVufDB8fHx8fA%3D%3D,,정확한 가격은 지자체에 문의,02-2600-7732
61,1,헬스(등촌2동주민센터),강서구,서울특별시 강서구 등촌로143,37.54265827,126.8625035,화 10:00~11:00,유료,https://images.unsplash.com/photo-1517963879433-6ad2b056d712?auto=format&fit=crop&q=80&w=1170&ixlib=rb-4.0.3&ixid=M3wxMjA3fDB8MHxwaG90by1wYWdlfHx8fGVufDB8fHx8fA%3D%3D,,정확한 가격은 지자체에 문의,02-2600-7386
62,1,특수체육(늘푸른나무복지관),강서구,서울특별시 강서구 허준로5길 37,37.56853632,126.8511172,목 09:50~11:30,유료,https://img.freepik.com/free-photo/full-shot-friends-playing-basketball-together_23-2149392042.jpg?w=1060&t=st=1698657763~exp=1698658363~hmac=489643b18a892a3e188b897428724d75c9e941d121e9fea9916c53af9bb537d4,www.egreedn.or.kr,정확한 가격은 지자체에 문의,02-3661-3401
63,1,특수체육(그라나다보호작업센터),강서구,서울특별시 강서구 허준로5길 37 늘푸른나무 복지관,37.56853632,126.8511172,화 09:20~11:00,유료,https://img.freepik.com/free-photo/full-shot-friends-playing-basketball-together_23-2149392042.jpg?w=1060&t=st=1698657763~exp=1698658363~hmac=489643b18a892a3e188b897428724d75c9e941d121e9fea9916c53af9bb537d4,www.granada.or.kr,정확한 가격은 지자체에 문의,02-3661-3402
64,1,헬스(등촌2동주민센터헬스장),강서구,서울특별시 강서구 등촌로 143,37.54265827,126.8625035,월 10:00~10:40 / 수 09:30~10:40 / 수 10:40~11:50,유료,https://images.unsplash.com/photo-1517963879433-6ad2b056d712?auto=format&fit=crop&q=80&w=1170&ixlib=rb-4.0.3&ixid=M3wxMjA3fDB8MHxwaG90by1wYWdlfHx8fGVufDB8fHx8fA%3D%3D,,정확한 가격은 지자체에 문의,02-2600-7395
65,1,헬스(가양3동주민센터),강서구,서울특별시 강서구 허준로 202,37.56108697,126.8605577,목 14:00~15:00,유료,https://images.unsplash.com/photo-1517963879433-6ad2b056d712?auto=format&fit=crop&q=80&w=1170&ixlib=rb-4.0.3&ixid=M3wxMjA3fDB8MHxwaG90by1wYWdlfHx8fGVufDB8fHx8fA%3D%3D,,정확한 가격은 지자체에 문의,02-2600-7865
66,1,헬스(우장산주민센터),강서구,서울특별시 강서구 우현로 34?,37.54828859,126.8418363,수10:00~11:20 / 금10:00~11:20,유료,https://images.unsplash.com/photo-1517963879433-6ad2b056d712?auto=format&fit=crop&q=80&w=1170&ixlib=rb-4.0.3&ixid=M3wxMjA3fDB8MHxwaG90by1wYWdlfHx8fGVufDB8fHx8fA%3D%3D,,정확한 가격은 지자체에 문의,02-2600-7745
67,1,헬스(가양2동주민센터),강서구,서울특별시 강서구 허준로 93,37.56739892,126.8512712,화 14:00~15:00,유료,https://images.unsplash.com/photo-1517963879433-6ad2b056d712?auto=format&fit=crop&q=80&w=1170&ixlib=rb-4.0.3&ixid=M3wxMjA3fDB8MHxwaG90by1wYWdlfHx8fGVufDB8fHx8fA%3D%3D,,정확한 가격은 지자체에 문의,02-2600-7825
68,1,헬스(등촌3동주민센터),강서구,서울특별시?강서구 화곡로63길 96 등,37.55888771,126.8479185,월 14:00~15:20 / 목 10:00~11:20,유료,https://images.unsplash.com/photo-1517963879433-6ad2b056d712?auto=format&fit=crop&q=80&w=1170&ixlib=rb-4.0.3&ixid=M3wxMjA3fDB8MHxwaG90by1wYWdlfHx8fGVufDB8fHx8fA%3D%3D,,정확한 가격은 지자체에 문의,02-2600-7445
69,1,보디빌딩(화곡6동주민센터),강서구,서울특별시 강서구 화곡로312,37.55181666,126.8500765,금 10:00~11:20,유료,https://images.unsplash.com/photo-1526506118085-60ce8714f8c5?auto=format&fit=crop&q=80&w=1287&ixlib=rb-4.0.3&ixid=M3wxMjA3fDB8MHxwaG90by1wYWdlfHx8fGVufDB8fHx8fA%3D%3D,,정확한 가격은 지자체에 문의,02-26007646
70,1,보디빌딩(화곡3동주민센터),강서구,서울특별시 강서구 강서로33가길 17,37.54252631,126.8384139,수 15:00~16:30,유료,https://images.unsplash.com/photo-1526506118085-60ce8714f8c5?auto=format&fit=crop&q=80&w=1287&ixlib=rb-4.0.3&ixid=M3wxMjA3fDB8MHxwaG90by1wYWdlfHx8fGVufDB8fHx8fA%3D%3D,,정확한 가격은 지자체에 문의,02-2600-7565
71,1,보디빌딩(화곡4동주민센터),강서구,서울특별시 강서구 곰달래로57가길26,37.53480238,126.8607489,수 10:00~11:20,유료,https://images.unsplash.com/photo-1526506118085-60ce8714f8c5?auto=format&fit=crop&q=80&w=1287&ixlib=rb-4.0.3&ixid=M3wxMjA3fDB8MHxwaG90by1wYWdlfHx8fGVufDB8fHx8fA%3D%3D,,정확한 가격은 지자체에 문의,02-2600-7604
72,1,"요가,헬스(화곡6동주민센터)",강서구,서울특별시 강서구 화곡로312,37.55181666,126.8500765,화 09:40~11:10,유료,https://images.unsplash.com/photo-1544367567-0f2fcb009e0b?auto=format&fit=crop&q=80&w=1220&ixlib=rb-4.0.3&ixid=M3wxMjA3fDB8MHxwaG90by1wYWdlfHx8fGVufDB8fHx8fA%3D%3D,,정확한 가격은 지자체에 문의,02-2600-7665
73,1,"요가,헬스(우장산동주민센터)",강서구,서울특별시 강서구 우현로 34,37.54828859,126.8418363,"월, 금 09:40~11:20",유료,https://images.unsplash.com/photo-1544367567-0f2fcb009e0b?auto=format&fit=crop&q=80&w=1220&ixlib=rb-4.0.3&ixid=M3wxMjA3fDB8MHxwaG90by1wYWdlfHx8fGVufDB8fHx8fA%3D%3D,,정확한 가격은 지자체에 문의,02-2600-7745
74,1,뉴스포츠(기쁜우리복지관 지하1층),강서구,서울특별시 강서구 허준로65,37.56927822,126.8488644,목 10:30~11:30,유료,https://img.freepik.com/free-photo/sports-tools_53876-138077.jpg?w=1060&t=st=1698657803~exp=1698658403~hmac=00859a66d1826f1d0158cc6967a418d2f3d17963e36f9a4ae3ce9aad1d510e73,http://www.gibbun.or.kr,정확한 가격은 지자체에 문의,02-3665-3831
75,1,족구(해누리족구장),양천구,서울 양천구 안양천로 711,37.5115265,126.872374,"화, 목 10:30~11:30",유료,https://jobsinfootball.com/files/pictures/soccer_tennis.jpg,,정확한 가격은 지자체에 문의,
76,1,헬스&근력운동(G.X)(신월4동주민센터),양천구,서울특별시 양천구 오목로5길 34,37.52469581,126.8400811,화 10:00~11:30 / 목 10:00~11:30,유료,https://images.unsplash.com/photo-1517963879433-6ad2b056d712?auto=format&fit=crop&q=80&w=1170&ixlib=rb-4.0.3&ixid=M3wxMjA3fDB8MHxwaG90by1wYWdlfHx8fGVufDB8fHx8fA%3D%3D,https://www.yangcheon.go.kr/dong/sinwol04/main.do,정확한 가격은 지자체에 문의,2620-4115
77,1,헬스&근력운동(G.X)(목4동주민센터),양천구,서울특별시 양천구 목동중앙로25(목동),37.53243314,126.8683948,수 10:00~11:30 / 금 10:00~11:30,유료,https://images.unsplash.com/photo-1517963879433-6ad2b056d712?auto=format&fit=crop&q=80&w=1170&ixlib=rb-4.0.3&ixid=M3wxMjA3fDB8MHxwaG90by1wYWdlfHx8fGVufDB8fHx8fA%3D%3D,https://www.yangcheon.go.kr/dong/mok04/main.do,정확한 가격은 지자체에 문의,2620-4000
78,1,탁구(한빛종합사회복지관),양천구,서울특별시 양천구 신월로11길 16,37.51907402,126.8402256,수 14:00~14:40 / 금 14:00~14:40 / 금 14:50~15:30,유료,https://images.unsplash.com/photo-1564518440696-ef272968778e?auto=format&fit=crop&q=80&w=1170&ixlib=rb-4.0.3&ixid=M3wxMjA3fDB8MHxwaG90by1wYWdlfHx8fGVufDB8fHx8fA%3D%3D,http://www.han-bit.or.kr/,정확한 가격은 지자체에 문의,02-2690-8762
79,1,탁구(목동종합사회복지관),양천구,서울특별시 양천구 목동중앙북로8길104,37.54424009,126.8663764,금 16:00~16:40 / 금 16:50~17:30,유료,https://images.unsplash.com/photo-1564518440696-ef272968778e?auto=format&fit=crop&q=80&w=1170&ixlib=rb-4.0.3&ixid=M3wxMjA3fDB8MHxwaG90by1wYWdlfHx8fGVufDB8fHx8fA%3D%3D,http://sseoul.or.kr/,정확한 가격은 지자체에 문의,02-2651-2333
80,1,탁구(신정종합사회복지관),양천구,서울특별시 양천구 신정중앙로 36,37.52730285,126.8555308,"월, 수16:00~16:40 / 월, 수 16:50~17:30",유료,https://images.unsplash.com/photo-1564518440696-ef272968778e?auto=format&fit=crop&q=80&w=1170&ixlib=rb-4.0.3&ixid=M3wxMjA3fDB8MHxwaG90by1wYWdlfHx8fGVufDB8fHx8fA%3D%3D,http://sseoul.or.kr/,정확한 가격은 지자체에 문의,02-2651-2332
81,1,탁구(목동종합사회복지관),양천구,서울특별시 양천구 목동중앙북로8길 104,37.54424009,126.8663764,월 14:00~14:40 / 월 14:50~15:30,유료,https://images.unsplash.com/photo-1564518440696-ef272968778e?auto=format&fit=crop&q=80&w=1170&ixlib=rb-4.0.3&ixid=M3wxMjA3fDB8MHxwaG90by1wYWdlfHx8fGVufDB8fHx8fA%3D%3D,http://sseoul.or.kr/,정확한 가격은 지자체에 문의,02-2651-2333
82,1,생활체조(아현건강증진센터),마포구,서울특별시 마포구 마포대로11길 44-81,37.55212686,126.9512971,월 13:30~14:30 / 수 13:30~14:30,유료,https://img.freepik.com/free-photo/men-and-women-warm-up-before-and-after-exercising_1150-23003.jpg?w=1060&t=st=1698655137~exp=1698655737~hmac=fbcb731e03e38413e76c25c99f1c393cde5bbd5247d2dd3ec385c04c355d58fe,,정확한 가격은 지자체에 문의,02-3153-9882
83,1,뉴스포츠(북아현방과후교실),서대문구,서울특별시 서대문구 충정로 52,37.56335057,126.9658861,"월, 수, 금 15:00~16:20",유료,https://img.freepik.com/free-photo/sports-tools_53876-138077.jpg?w=1060&t=st=1698657803~exp=1698658403~hmac=00859a66d1826f1d0158cc6967a418d2f3d17963e36f9a4ae3ce9aad1d510e73,,정확한 가격은 지자체에 문의,02-364-3462
84,1,헬스(홍제천 일대),서대문구,서울 서대문구 연희동 170-181,37.5798169,126.9356641,"월, 화, 수, 목 09:00~10:30/ 월, 수 14:00~15:30 / 금 14:00~15:30",유료,https://images.unsplash.com/photo-1517963879433-6ad2b056d712?auto=format&fit=crop&q=80&w=1170&ixlib=rb-4.0.3&ixid=M3wxMjA3fDB8MHxwaG90by1wYWdlfHx8fGVufDB8fHx8fA%3D%3D,,정확한 가격은 지자체에 문의,02-335-7330
85,1,경춘선 숲길 걷기 수업(경춘선숲길),노원구,서울특별시 노원구 동일로198가길 149,37.63039111,127.0670364,"월, 수 10:00~10:45, 10:45~11:30 / 목 10:00~10:40, 10:40~11:20 / 금 10:00~10:40, 10:40~11:20",유료,https://images.unsplash.com/photo-1487956382158-bb926046304a?auto=format&fit=crop&q=80&w=1171&ixlib=rb-4.0.3&ixid=M3wxMjA3fDB8MHxwaG90by1wYWdlfHx8fGVufDB8fHx8fA%3D%3D,,정확한 가격은 지자체에 문의,
86,1,경춘선 숲길 걷기 수업(경춘선 숲길),노원구,서울특별시 노원구 동일로198가길 149,37.63039111,127.0670364,"월, 금 10:00~10:40 / 월, 금 10:40~11:20",유료,https://images.unsplash.com/photo-1487956382158-bb926046304a?auto=format&fit=crop&q=80&w=1171&ixlib=rb-4.0.3&ixid=M3wxMjA3fDB8MHxwaG90by1wYWdlfHx8fGVufDB8fHx8fA%3D%3D,,정확한 가격은 지자체에 문의,
87,1,헬스(오동생활체육공원),강북구,서울특별시 강북구 오패산로52라길 149,37.62080086,127.0344901,"월, 수, 금 15:00~16:30",유료,https://images.unsplash.com/photo-1517963879433-6ad2b056d712?auto=format&fit=crop&q=80&w=1170&ixlib=rb-4.0.3&ixid=M3wxMjA3fDB8MHxwaG90by1wYWdlfHx8fGVufDB8fHx8fA%3D%3D,,정확한 가격은 지자체에 문의,02-989-3422
88,1,축구(강북구민운동장),강북구,서울특별시 강북구 오현로 187-25,37.62942638,127.0379894,수 13:40~16:00,유료,https://images.unsplash.com/photo-1551958219-acbc608c6377?auto=format&fit=crop&q=80&w=1170&ixlib=rb-4.0.3&ixid=M3wxMjA3fDB8MHxwaG90by1wYWdlfHx8fGVufDB8fHx8fA%3D%3D,,정확한 가격은 지자체에 문의,
89,1,생활체조(래미안라센트아파트),성북구,서울특별시 성북구 종암로24가길 80,37.59931367,127.0392269,목 10:00~10:45,유료,https://img.freepik.com/free-photo/men-and-women-warm-up-before-and-after-exercising_1150-23003.jpg?w=1060&t=st=1698655137~exp=1698655737~hmac=fbcb731e03e38413e76c25c99f1c393cde5bbd5247d2dd3ec385c04c355d58fe,,정확한 가격은 지자체에 문의,02-917-1426
90,1,걷기운동(북한산둘레길),성북구,서울특별시 성북구 솔샘로25길 121-50,37.62095698,127.0068831,수 10:00~11:50,유료,https://images.unsplash.com/photo-1487956382158-bb926046304a?auto=format&fit=crop&q=80&w=1171&ixlib=rb-4.0.3&ixid=M3wxMjA3fDB8MHxwaG90by1wYWdlfHx8fGVufDB8fHx8fA%3D%3D,,정확한 가격은 지자체에 문의,02-3676-7330
91,1,걷기운동(성북동성곽길),성북구,서울특별시 성북구,37.58935882,127.0167029,월 10:00~11:50,유료,https://images.unsplash.com/photo-1487956382158-bb926046304a?auto=format&fit=crop&q=80&w=1171&ixlib=rb-4.0.3&ixid=M3wxMjA3fDB8MHxwaG90by1wYWdlfHx8fGVufDB8fHx8fA%3D%3D,,정확한 가격은 지자체에 문의,
92,1,걷기운동(북서울꿈의숲),성북구,서울특별시 강북구 월계로 173,37.62025446,127.0443247,금 10:00~11:50,유료,https://images.unsplash.com/photo-1487956382158-bb926046304a?auto=format&fit=crop&q=80&w=1171&ixlib=rb-4.0.3&ixid=M3wxMjA3fDB8MHxwaG90by1wYWdlfHx8fGVufDB8fHx8fA%3D%3D,,정확한 가격은 지자체에 문의,02-3676-7330
93,1,생활체조(성북구보건소),성북구,서울특별시 성북구 화랑로 63,37.60271066,127.0395333,"화, 목 15:50~17:10",유료,https://img.freepik.com/free-photo/men-and-women-warm-up-before-and-after-exercising_1150-23003.jpg?w=1060&t=st=1698655137~exp=1698655737~hmac=fbcb731e03e38413e76c25c99f1c393cde5bbd5247d2dd3ec385c04c355d58fe,http://www.sb.go.kr/bogunso/main.do,정확한 가격은 지자체에 문의,
94,1,생활체조(정릉 e편한세상아파트),성북구,서울특별시 성북구 북악산로 851,37.60025102,127.0183154,금 10:00~10:50,유료,https://img.freepik.com/free-photo/men-and-women-warm-up-before-and-after-exercising_1150-23003.jpg?w=1060&t=st=1698655137~exp=1698655737~hmac=fbcb731e03e38413e76c25c99f1c393cde5bbd5247d2dd3ec385c04c355d58fe,,정확한 가격은 지자체에 문의,02-914-1871
95,1,생활체조(성북구보건소),성북구,서울특별시 성북구 화랑로63,37.60271066,127.0395333,"월, 수 15:50~16:30 / 월, 수 16:30~17:10",유료,https://img.freepik.com/free-photo/men-and-women-warm-up-before-and-after-exercising_1150-23003.jpg?w=1060&t=st=1698655137~exp=1698655737~hmac=fbcb731e03e38413e76c25c99f1c393cde5bbd5247d2dd3ec385c04c355d58fe,www.sb.go.kr/bogunso/main.do,정확한 가격은 지자체에 문의,02-2241-1749
96,1,걷기(성북동 성곽길),성북구,서울특별시 종로구 창경궁로307 성북동 성곽길 혜화문,37.58796215,127.003505,월 10:00~11:00 / 월 11:00~12:00,유료,https://images.unsplash.com/photo-1487956382158-bb926046304a?auto=format&fit=crop&q=80&w=1171&ixlib=rb-4.0.3&ixid=M3wxMjA3fDB8MHxwaG90by1wYWdlfHx8fGVufDB8fHx8fA%3D%3D,,정확한 가격은 지자체에 문의,
97,1,걷기(북서울꿈의숲),성북구,서울특별시 강북구 월계로 173,37.62025446,127.0443247,금 10:00~11:20,유료,https://images.unsplash.com/photo-1487956382158-bb926046304a?auto=format&fit=crop&q=80&w=1171&ixlib=rb-4.0.3&ixid=M3wxMjA3fDB8MHxwaG90by1wYWdlfHx8fGVufDB8fHx8fA%3D%3D,,정확한 가격은 지자체에 문의,02-3676-7330
98,1,생활체조(돈암코오롱아파트),성북구,서울특별시 성북구 아리랑로 75,37.59883026,127.0136255,목 10:00~10:40,유료,https://img.freepik.com/free-photo/men-and-women-warm-up-before-and-after-exercising_1150-23003.jpg?w=1060&t=st=1698655137~exp=1698655737~hmac=fbcb731e03e38413e76c25c99f1c393cde5bbd5247d2dd3ec385c04c355d58fe,,정확한 가격은 지자체에 문의,010-8331-9352
99,1,근력운동(석관두산아파트),성북구,서울특별시 성북구 화랑로48길16,37.61376289,127.0689946,목 10:00~10:45,유료,https://images.unsplash.com/photo-1517963879433-6ad2b056d712?auto=format&fit=crop&q=80&w=1170&ixlib=rb-4.0.3&ixid=M3wxMjA3fDB8MHxwaG90by1wYWdlfHx8fGVufDB8fHx8fA%3D%3D,,정확한 가격은 지자체에 문의,
100,1,걷기(북한산둘레길),성북구,서울특별시 성북구 삼선교로 30-1,37.58795905,127.009126,수 10:00~11:30,유료,https://images.unsplash.com/photo-1487956382158-bb926046304a?auto=format&fit=crop&q=80&w=1171&ixlib=rb-4.0.3&ixid=M3wxMjA3fDB8MHxwaG90by1wYWdlfHx8fGVufDB8fHx8fA%3D%3D,,정확한 가격은 지자체에 문의,02-3676-7330
101,1,걷기(북서울꿈의숲),성북구,서울특별시 성북구 삼선교로 30-1,37.58795905,127.009126,금 10:00~11:30,유료,https://images.unsplash.com/photo-1487956382158-bb926046304a?auto=format&fit=crop&q=80&w=1171&ixlib=rb-4.0.3&ixid=M3wxMjA3fDB8MHxwaG90by1wYWdlfHx8fGVufDB8fHx8fA%3D%3D,http://www.sportssb.or.kr/,정확한 가격은 지자체에 문의,02-36767-7330
102,1,밴드운동(꿈의숲코오롱하늘채아파트),성북구,서울특별시 성북구 돌곶이로 220,37.61901822,127.0464327,수 10:00~10:45,유료,https://images.unsplash.com/photo-1517130038641-a774d04afb3c?auto=format&fit=crop&q=80&w=1170&ixlib=rb-4.0.3&ixid=M3wxMjA3fDB8MHxwaG90by1wYWdlfHx8fGVufDB8fHx8fA%3D%3D,,정확한 가격은 지자체에 문의,010-3499-7854
103,1,걷기(성북동성곽길),성북구,서울특별시 성북구 삼선교로 30-1,37.58795905,127.009126,월 10:00~11:30,유료,https://images.unsplash.com/photo-1487956382158-bb926046304a?auto=format&fit=crop&q=80&w=1171&ixlib=rb-4.0.3&ixid=M3wxMjA3fDB8MHxwaG90by1wYWdlfHx8fGVufDB8fHx8fA%3D%3D,http://www.sportssb.or.kr/,정확한 가격은 지자체에 문의,02-36767-7330
104,1,생활체조(돈암2동주민센터 다목적홀),성북구,서울특별시 성북구 흥천사길 7,37.59801698,127.010539,목 15:00~16:20,유료,https://img.freepik.com/free-photo/men-and-women-warm-up-before-and-after-exercising_1150-23003.jpg?w=1060&t=st=1698655137~exp=1698655737~hmac=fbcb731e03e38413e76c25c99f1c393cde5bbd5247d2dd3ec385c04c355d58fe,,정확한 가격은 지자체에 문의,010-9897-5422
105,1,생활체조(안암동주민센터 다목적홀),성북구,서울특별시 성북구 고려대로16,37.58582076,127.0213756,수 13:30~14:50,유료,https://img.freepik.com/free-photo/men-and-women-warm-up-before-and-after-exercising_1150-23003.jpg?w=1060&t=st=1698655137~exp=1698655737~hmac=fbcb731e03e38413e76c25c99f1c393cde5bbd5247d2dd3ec385c04c355d58fe,,정확한 가격은 지자체에 문의,010-4266-8991
106,1,배드민턴(용두문화복지센터 (체육관)),동대문구,서울특별시 동대문구 고산자로28길 13,37.57532359,127.0391728,"화, 목 10:00~11:30",유료,https://images.unsplash.com/photo-1521537634581-0dced2fee2ef?auto=format&fit=crop&q=80&w=1170&ixlib=rb-4.0.3&ixid=M3wxMjA3fDB8MHxwaG90by1wYWdlfHx8fGVufDB8fHx8fA%3D%3D,,정확한 가격은 지자체에 문의,02-6929-2647
107,1,배드민턴(광장동실내배드민턴장),광진구,서울 광진구 천호대로140길 40,37.54442528,127.1001957,"화,목 13:00~14:00 / 화, 목 14:00~15:00",유료,https://images.unsplash.com/photo-1521537634581-0dced2fee2ef?auto=format&fit=crop&q=80&w=1170&ixlib=rb-4.0.3&ixid=M3wxMjA3fDB8MHxwaG90by1wYWdlfHx8fGVufDB8fHx8fA%3D%3D,,정확한 가격은 지자체에 문의,02-458-9062
108,1,헬스(광진구보건소운동교육실),광진구,서울특별시 광진구 자양로117,37.53853161,127.0819098,"화, 수 09:30~10:10 / 화, 수 10:30~11:10",유료,https://images.unsplash.com/photo-1517963879433-6ad2b056d712?auto=format&fit=crop&q=80&w=1170&ixlib=rb-4.0.3&ixid=M3wxMjA3fDB8MHxwaG90by1wYWdlfHx8fGVufDB8fHx8fA%3D%3D,,정확한 가격은 지자체에 문의,02-450-1300
109,1,헬스(광진구청 보건소체력단련실),광진구,서울특별시 자양로117 보건소2층,37.53853161,127.0819098,목 09:30~10:30 / 목 10:30~11:30,유료,https://images.unsplash.com/photo-1517963879433-6ad2b056d712?auto=format&fit=crop&q=80&w=1170&ixlib=rb-4.0.3&ixid=M3wxMjA3fDB8MHxwaG90by1wYWdlfHx8fGVufDB8fHx8fA%3D%3D,,정확한 가격은 지자체에 문의,02-450-1586
110,1,라인댄스(주민센터3층체육관),광진구,서울특별시 광진구 광나루로36길56,37.54241324,127.0856773,금 10:20~11:00,유료,https://plus.unsplash.com/premium_photo-1681492508069-d558d8fa0ad7?auto=format&fit=crop&q=80&w=1171&ixlib=rb-4.0.3&ixid=M3wxMjA3fDB8MHxwaG90by1wYWdlfHx8fGVufDB8fHx8fA%3D%3D,,정확한 가격은 지자체에 문의,02-450-1506
111,1,리듬댄스(주민센터3층체육관),광진구,서울특별시 광진구 광나루로36길56,37.54241324,127.0856773,금 09:40~10:20,유료,https://plus.unsplash.com/premium_photo-1681492508069-d558d8fa0ad7?auto=format&fit=crop&q=80&w=1171&ixlib=rb-4.0.3&ixid=M3wxMjA3fDB8MHxwaG90by1wYWdlfHx8fGVufDB8fHx8fA%3D%3D,,정확한 가격은 지자체에 문의,02-450-1506
112,1,라인댄스(주민센터3층체육관),광진구,서울특별시 광진구 능동로 17길39,37.54652678,127.0712676,목 11:50~12:30,유료,https://plus.unsplash.com/premium_photo-1681492508069-d558d8fa0ad7?auto=format&fit=crop&q=80&w=1171&ixlib=rb-4.0.3&ixid=M3wxMjA3fDB8MHxwaG90by1wYWdlfHx8fGVufDB8fHx8fA%3D%3D,,정확한 가격은 지자체에 문의,02-450-1515
113,1,리듬댄스(주민센터3층체육관),광진구,서울특별시 광진구 능동로 17길39,37.54652678,127.0712676,목 11:00~11:40,유료,https://plus.unsplash.com/premium_photo-1681492508069-d558d8fa0ad7?auto=format&fit=crop&q=80&w=1171&ixlib=rb-4.0.3&ixid=M3wxMjA3fDB8MHxwaG90by1wYWdlfHx8fGVufDB8fHx8fA%3D%3D,,정확한 가격은 지자체에 문의,02-450-1515
114,1,라인댄스(주민센터3층체육관),광진구,서울특별시 광진구 자양로3가길,37.52896132,127.0847812,화 14:50~15:30,유료,https://plus.unsplash.com/premium_photo-1681492508069-d558d8fa0ad7?auto=format&fit=crop&q=80&w=1171&ixlib=rb-4.0.3&ixid=M3wxMjA3fDB8MHxwaG90by1wYWdlfHx8fGVufDB8fHx8fA%3D%3D,,정확한 가격은 지자체에 문의,02-450-1511
115,1,리듬댄스(주민센터3층체육관),광진구,서울특별시 광진구 자양로3가길,37.52896132,127.0847812,화 14:00~14:40,유료,https://plus.unsplash.com/premium_photo-1681492508069-d558d8fa0ad7?auto=format&fit=crop&q=80&w=1171&ixlib=rb-4.0.3&ixid=M3wxMjA3fDB8MHxwaG90by1wYWdlfHx8fGVufDB8fHx8fA%3D%3D,,정확한 가격은 지자체에 문의,02-450-1511
116,1,헬스(보건소 체력단련장),광진구,서울특별시 광진구 자양로117,37.53853161,127.0819098,수 09:20~10:00,유료,https://images.unsplash.com/photo-1517963879433-6ad2b056d712?auto=format&fit=crop&q=80&w=1170&ixlib=rb-4.0.3&ixid=M3wxMjA3fDB8MHxwaG90by1wYWdlfHx8fGVufDB8fHx8fA%3D%3D,www.gwangjin.go.kr/health/main/main.do,정확한 가격은 지자체에 문의,02-450-1422
117,1,배드민턴(광장복지관),광진구,서울특별시 광진구 아차산로66길 8,37.54103356,127.0970671,화 16:10~17:00,유료,https://images.unsplash.com/photo-1521537634581-0dced2fee2ef?auto=format&fit=crop&q=80&w=1170&ixlib=rb-4.0.3&ixid=M3wxMjA3fDB8MHxwaG90by1wYWdlfHx8fGVufDB8fHx8fA%3D%3D,,정확한 가격은 지자체에 문의,02-2201-1333
118,1,요가(광장복지관),광진구,서울특별시 광진구 아차산로66길 8,37.54103356,127.0970671,화 15:30~16:10,유료,https://images.unsplash.com/photo-1544367567-0f2fcb009e0b?auto=format&fit=crop&q=80&w=1220&ixlib=rb-4.0.3&ixid=M3wxMjA3fDB8MHxwaG90by1wYWdlfHx8fGVufDB8fHx8fA%3D%3D,,정확한 가격은 지자체에 문의,02-2201-1333
119,1,축구(성동구민종합체육센터),성동구,서울특별시 성동구 왕십리로 89,37.54584153,127.044028,"화, 목 16:00~17:00",유료,https://images.unsplash.com/photo-1551958219-acbc608c6377?auto=format&fit=crop&q=80&w=1170&ixlib=rb-4.0.3&ixid=M3wxMjA3fDB8MHxwaG90by1wYWdlfHx8fGVufDB8fHx8fA%3D%3D,https://www.happysd.or.kr/index.do,정확한 가격은 지자체에 문의,02-2204-7617
120,1,요가(구립장애인주간보호센터),용산구,서울특별시 용산구 한강대로 331 3층,37.54790166,126.9714991,목 14:30~15:10 / 금 14:30~15:10,유료,https://images.unsplash.com/photo-1544367567-0f2fcb009e0b?auto=format&fit=crop&q=80&w=1220&ixlib=rb-4.0.3&ixid=M3wxMjA3fDB8MHxwaG90by1wYWdlfHx8fGVufDB8fHx8fA%3D%3D,https://happylog.naver.com/hlog/yongsan4282/home,정확한 가격은 지자체에 문의,02-701-4282
121,1,요가(구립용산장애인복지관),용산구,서울특별시 용산구 효창원로 93길 49,37.54730707,126.961569,월 12:50~14:20 / 목 13:00~13:40,유료,https://images.unsplash.com/photo-1544367567-0f2fcb009e0b?auto=format&fit=crop&q=80&w=1220&ixlib=rb-4.0.3&ixid=M3wxMjA3fDB8MHxwaG90by1wYWdlfHx8fGVufDB8fHx8fA%3D%3D,http://www.ysrehab.or.kr/,정확한 가격은 지자체에 문의,070-4657-2018
122,1,요가(효창주민센터),용산구,서울특별시 용산구 효창원로 161 효창주민센터 5층 대강당,37.54250834,126.9618379,월 11:00~11:50 / 수 11:00~11:50,유료,https://images.unsplash.com/photo-1544367567-0f2fcb009e0b?auto=format&fit=crop&q=80&w=1220&ixlib=rb-4.0.3&ixid=M3wxMjA3fDB8MHxwaG90by1wYWdlfHx8fGVufDB8fHx8fA%3D%3D,,정확한 가격은 지자체에 문의,010-4164-4170
123,1,스트레칭(효창종합사회복지관),용산구,서울특별시 용산구 효창동 5-65,37.54118506,126.9630008,"월, 수, 금 09:30~12:00",유료,https://images.unsplash.com/photo-1552196563-55cd4e45efb3?auto=format&fit=crop&q=80&w=1326&ixlib=rb-4.0.3&ixid=M3wxMjA3fDB8MHxwaG90by1wYWdlfHx8fGVufDB8fHx8fA%3D%3D,https://www.hyochang.or.kr:6017/,정확한 가격은 지자체에 문의,
124,1,테라밴드(효창종합사회복지관),용산구,서울특별시 용산구 효창동 5-65,37.54118506,126.9630008,목 09:30~12:00,유료,https://images.unsplash.com/photo-1517130038641-a774d04afb3c?auto=format&fit=crop&q=80&w=1170&ixlib=rb-4.0.3&ixid=M3wxMjA3fDB8MHxwaG90by1wYWdlfHx8fGVufDB8fHx8fA%3D%3D,https://www.hyochang.or.kr:6017/,정확한 가격은 지자체에 문의,
125,1,덤벨체조(효창종합사회복지관),용산구,서울특별시 용산구 효창동 5-65,37.54118506,126.9630008,화 09:30~12:00,유료,https://images.pexels.com/photos/39671/physiotherapy-weight-training-dumbbell-exercise-balls-39671.jpeg?auto=compress&cs=tinysrgb&w=1260&h=750&dpr=1,https://www.hyochang.or.kr:6017/,정확한 가격은 지자체에 문의,
126,1,스트레칭(세라밴드)(필동주민센터),중구,서울특별시 중구 퇴계로36길 42,37.56015769,126.9955974,목 14:00~14:40,유료,https://images.unsplash.com/photo-1517130038641-a774d04afb3c?auto=format&fit=crop&q=80&w=1170&ixlib=rb-4.0.3&ixid=M3wxMjA3fDB8MHxwaG90by1wYWdlfHx8fGVufDB8fHx8fA%3D%3D,https://www.junggu.seoul.kr/dong/pil/main.do,정확한 가격은 지자체에 문의,02-3396-6594
127,1,스트레칭(세라밴드)(필동주민센터 2층),중구,서울특별시 중구 퇴계로36길 42,37.56015769,126.9955974,화 14:00~14:40,유료,https://images.unsplash.com/photo-1517130038641-a774d04afb3c?auto=format&fit=crop&q=80&w=1170&ixlib=rb-4.0.3&ixid=M3wxMjA3fDB8MHxwaG90by1wYWdlfHx8fGVufDB8fHx8fA%3D%3D,https://www.junggu.seoul.kr/dong/pil/main.do,정확한 가격은 지자체에 문의,02-3396-6594
128,1,스트레칭(세라밴드)(장충체육관),중구,서울특별시 중구 동호로 241,37.55864066,127.0066775,화 10:00~10:50,유료,https://images.unsplash.com/photo-1517130038641-a774d04afb3c?auto=format&fit=crop&q=80&w=1170&ixlib=rb-4.0.3&ixid=M3wxMjA3fDB8MHxwaG90by1wYWdlfHx8fGVufDB8fHx8fA%3D%3D,https://www.sisul.or.kr/open_content/jangchung/,정확한 가격은 지자체에 문의,02-2128-2814
129,1,스트레칭(세라밴드)(황학동주민센터),중구,서울특별시 중구 난계로11길 52,37.56742273,127.0213823,월 10:30~11:30,유료,https://images.unsplash.com/photo-1517130038641-a774d04afb3c?auto=format&fit=crop&q=80&w=1170&ixlib=rb-4.0.3&ixid=M3wxMjA3fDB8MHxwaG90by1wYWdlfHx8fGVufDB8fHx8fA%3D%3D,https://www.junggu.seoul.kr/dong/hwanghak/main.do,정확한 가격은 지자체에 문의,02-3396-6893
130,1,"헬스, 근력운동(황학동주민센터)",중구,서울특별시 중구 난계로11길 52,37.56742273,127.0213823,"수, 금 10:30~11:30",유료,https://images.unsplash.com/photo-1517963879433-6ad2b056d712?auto=format&fit=crop&q=80&w=1170&ixlib=rb-4.0.3&ixid=M3wxMjA3fDB8MHxwaG90by1wYWdlfHx8fGVufDB8fHx8fA%3D%3D,,정확한 가격은 지자체에 문의,02-3396-6907
131,1,헬스(다산동주민센터),중구,서울특별시 중구 동호로 15길50,37.55433289,127.0082945,"화, 목 14:00~14:40",유료,https://images.unsplash.com/photo-1517963879433-6ad2b056d712?auto=format&fit=crop&q=80&w=1170&ixlib=rb-4.0.3&ixid=M3wxMjA3fDB8MHxwaG90by1wYWdlfHx8fGVufDB8fHx8fA%3D%3D,http://www.junggu.seoul.kr/dong/dasan/main.do,정확한 가격은 지자체에 문의,02-3396-6740
132,1,헬스(청구동주민센터),중구,서울특별시 중구 청구로 3길 55,37.55706761,127.0146854,"화, 목 10:00~10:40",유료,https://images.unsplash.com/photo-1517963879433-6ad2b056d712?auto=format&fit=crop&q=80&w=1170&ixlib=rb-4.0.3&ixid=M3wxMjA3fDB8MHxwaG90by1wYWdlfHx8fGVufDB8fHx8fA%3D%3D,http://www.junggu.seoul.kr/dong/cheonggu/main.do,정확한 가격은 지자체에 문의,02-3396-6800
133,1,에어로빅(훈련원공원종합체육관),중구,서울특별시 중구 을지로227 훈련원공원 내,37.56692913,127.0043893,"월, 수, 금 10:10~11:00",유료,https://as2.ftcdn.net/v2/jpg/03/40/51/65/1000_F_340516560_gKJSjmXXjDHu28s4JUkIGxRi3u9FhTjD.jpg,http://www.e-junggu.or.kr/,정확한 가격은 지자체에 문의,02-2280-8394
134,1,탁구(대청종합복지관),강남구,서울 강남구 양재대로55길 10,37.49315404,127.0909914,월 16:00~16:40 / 월 16:40~17:20,유료,https://images.unsplash.com/photo-1564518440696-ef272968778e?auto=format&fit=crop&q=80&w=1170&ixlib=rb-4.0.3&ixid=M3wxMjA3fDB8MHxwaG90by1wYWdlfHx8fGVufDB8fHx8fA%3D%3D,http://www.daechung.or.kr/main/main.php,정확한 가격은 지자체에 문의,02-469-6882
135,1,생활체육(강당),서초구,서울 서초구 강남대로65길 19,37.49983877,127.0239978,월 14:30~15:30,유료,https://images.unsplash.com/photo-1487956382158-bb926046304a?auto=format&fit=crop&q=80&w=1171&ixlib=rb-4.0.3&ixid=M3wxMjA3fDB8MHxwaG90by1wYWdlfHx8fGVufDB8fHx8fA%3D%3D,http://www.esarang.org/,정확한 가격은 지자체에 문의,02-540-6500
136,1,특수체육(강당),서초구,서울시 서초구 강남대로65길 19,37.49983877,127.0239978,화 11:00~11:50,유료,https://img.freepik.com/free-photo/full-shot-friends-playing-basketball-together_23-2149392042.jpg?w=1060&t=st=1698657763~exp=1698658363~hmac=489643b18a892a3e188b897428724d75c9e941d121e9fea9916c53af9bb537d4,http://www.esarang.org,정확한 가격은 지자체에 문의,02-540-6500
137,1,특수체육(강당),서초구,서초구 남부순환로 340길 15,37.48205213,127.0250125,금 10:00~12:00,유료,https://img.freepik.com/free-photo/full-shot-friends-playing-basketball-together_23-2149392042.jpg?w=1060&t=st=1698657763~exp=1698658363~hmac=489643b18a892a3e188b897428724d75c9e941d121e9fea9916c53af9bb537d4,,정확한 가격은 지자체에 문의,02-2055-0909
138,1,특수체육(강당),서초구,서초구 헌릉로8길 42 ,37.45411333,127.0614366,화 13:10~15:10,유료,https://img.freepik.com/free-photo/full-shot-friends-playing-basketball-together_23-2149392042.jpg?w=1060&t=st=1698657763~exp=1698658363~hmac=489643b18a892a3e188b897428724d75c9e941d121e9fea9916c53af9bb537d4,,정확한 가격은 지자체에 문의,02-455-4892
139,1,헬스(내곡열린문화센터),서초구,서울 서초구 청계산로 15길 77,37.44935828,127.0583143,"월,수 10:00~12:00",유료,https://images.unsplash.com/photo-1517963879433-6ad2b056d712?auto=format&fit=crop&q=80&w=1170&ixlib=rb-4.0.3&ixid=M3wxMjA3fDB8MHxwaG90by1wYWdlfHx8fGVufDB8fHx8fA%3D%3D,,정확한 가격은 지자체에 문의,02-2155-7951
140,1,"스트레칭,생활체조(영인구립경로당)",영등포구,서울특별시 영등포구 도림로58길 11,37.49607398,126.9027391,"목, 14:00~14:40",유료,https://images.unsplash.com/photo-1552196563-55cd4e45efb3?auto=format&fit=crop&q=80&w=1326&ixlib=rb-4.0.3&ixid=M3wxMjA3fDB8MHxwaG90by1wYWdlfHx8fGVufDB8fHx8fA%3D%3D,,정확한 가격은 지자체에 문의,
141,1,헬스(대림1동 주민자치센터),영등포구,영등포구 디지털로 441 대림제1동 사무소 체육관3층,37.49545723,126.905842,"수, 09:50~11:10",유료,https://images.unsplash.com/photo-1517963879433-6ad2b056d712?auto=format&fit=crop&q=80&w=1170&ixlib=rb-4.0.3&ixid=M3wxMjA3fDB8MHxwaG90by1wYWdlfHx8fGVufDB8fHx8fA%3D%3D,,정확한 가격은 지자체에 문의,02-2670-1379
142,1,헬스(양평동주민복지회관),영등포구,서울 영등포구 선유서로 34길 10 4층,37.5268695,126.8874353,"월, 09:50~11:10 수 10:00~11:20",유료,https://images.unsplash.com/photo-1517963879433-6ad2b056d712?auto=format&fit=crop&q=80&w=1170&ixlib=rb-4.0.3&ixid=M3wxMjA3fDB8MHxwaG90by1wYWdlfHx8fGVufDB8fHx8fA%3D%3D,,정확한 가격은 지자체에 문의,
143,1,축구(금천구청 환경미화원),금천구,서울시 금천구 독산동 1086,37.46367414,126.8841434,수 16:00~18:00,유료,https://images.unsplash.com/photo-1551958219-acbc608c6377?auto=format&fit=crop&q=80&w=1170&ixlib=rb-4.0.3&ixid=M3wxMjA3fDB8MHxwaG90by1wYWdlfHx8fGVufDB8fHx8fA%3D%3D,https://www.geumcheon.go.kr/,정확한 가격은 지자체에 문의,02-2627-2375
144,1,뉴스포츠(구로종합사회복지관),구로구,구로구 디지털로31길 93,37.48682339,126.8908274,금 16:00~16:40,유료,https://img.freepik.com/free-photo/sports-tools_53876-138077.jpg?w=1060&t=st=1698657803~exp=1698658403~hmac=00859a66d1826f1d0158cc6967a418d2f3d17963e36f9a4ae3ce9aad1d510e73,https://9ro.or.kr/,정확한 가격은 지자체에 문의,02-852-0525
145,1,체육(화원종합사회복지관방과후교실),구로구,구로구 벚꽃로 484,37.49733165,126.8801354,목 14:40~16:10,유료,https://images.unsplash.com/photo-1487956382158-bb926046304a?auto=format&fit=crop&q=80&w=1171&ixlib=rb-4.0.3&ixid=M3wxMjA3fDB8MHxwaG90by1wYWdlfHx8fGVufDB8fHx8fA%3D%3D,http://www.hwawon.org/,정확한 가격은 지자체에 문의,02-837-0761
146,1,헬스(공항동주민센터),강서구,서울 강서구 송정로45,37.55878281,126.8100743,"목, 금 10:00~11:00",유료,https://images.unsplash.com/photo-1517963879433-6ad2b056d712?auto=format&fit=crop&q=80&w=1170&ixlib=rb-4.0.3&ixid=M3wxMjA3fDB8MHxwaG90by1wYWdlfHx8fGVufDB8fHx8fA%3D%3D,,정확한 가격은 지자체에 문의,
147,1,헬스(염창동주민센터),강서구,서울 강서구 양천로67가길 63,37.55377136,126.8709657,월요일 10:00~11:00 / 수 10:00~10:40 / 수 10:40~11:20 / 금요일 14:00~15:00,유료,https://images.unsplash.com/photo-1517963879433-6ad2b056d712?auto=format&fit=crop&q=80&w=1170&ixlib=rb-4.0.3&ixid=M3wxMjA3fDB8MHxwaG90by1wYWdlfHx8fGVufDB8fHx8fA%3D%3D,,정확한 가격은 지자체에 문의,02-2600-7306
148,1,보디빌딩(우장산동주민센터),강서구,서울 강서구 우현로 34,37.54828859,126.8418363,"화, 금 14:40~15:20",유료,https://images.unsplash.com/photo-1526506118085-60ce8714f8c5?auto=format&fit=crop&q=80&w=1287&ixlib=rb-4.0.3&ixid=M3wxMjA3fDB8MHxwaG90by1wYWdlfHx8fGVufDB8fHx8fA%3D%3D,,정확한 가격은 지자체에 문의,02-2600-7732
149,1,헬스(우장산동주민센터),강서구,서울 강서구 우현로 34,37.54828859,126.8418363,"화, 금 14:00~14:40",유료,https://images.unsplash.com/photo-1517963879433-6ad2b056d712?auto=format&fit=crop&q=80&w=1170&ixlib=rb-4.0.3&ixid=M3wxMjA3fDB8MHxwaG90by1wYWdlfHx8fGVufDB8fHx8fA%3D%3D,,정확한 가격은 지자체에 문의,02-2600-7732
150,1,특수체육(늘푸른나무복지관),강서구,서울 강서구 허준로5길 37,37.56853632,126.8511172,목 10:20~11:00,유료,https://img.freepik.com/free-photo/full-shot-friends-playing-basketball-together_23-2149392042.jpg?w=1060&t=st=1698657763~exp=1698658363~hmac=489643b18a892a3e188b897428724d75c9e941d121e9fea9916c53af9bb537d4,http://www.egreen.or.kr/index.htm,정확한 가격은 지자체에 문의,02-3661-3401
151,1,특수체육(그라나다보호작업센터),강서구,서울 강서구 허준로5길 37,37.56853632,126.8511172,화 09:50~10:30,유료,https://img.freepik.com/free-photo/full-shot-friends-playing-basketball-together_23-2149392042.jpg?w=1060&t=st=1698657763~exp=1698658363~hmac=489643b18a892a3e188b897428724d75c9e941d121e9fea9916c53af9bb537d4,http://www.granada.or.kr/,정확한 가격은 지자체에 문의,02-3661-3402
152,1,헬스(등촌2동주민센터),강서구,서울 강서구 등촌로 143,37.54265827,126.8625035,수 10:40~11:20,유료,https://images.unsplash.com/photo-1517963879433-6ad2b056d712?auto=format&fit=crop&q=80&w=1170&ixlib=rb-4.0.3&ixid=M3wxMjA3fDB8MHxwaG90by1wYWdlfHx8fGVufDB8fHx8fA%3D%3D,http://www.gangseo.seoul.kr/new_portal/dong/index.jsp?dnum=3&dcode=DC2,정확한 가격은 지자체에 문의,02-2600-7386
153,1,스트레칭(등촌2동주민센터),강서구,서울 강서구 등촌로 143,37.54265827,126.8625035,"월, 수 10:00~10:40",유료,https://images.unsplash.com/photo-1552196563-55cd4e45efb3?auto=format&fit=crop&q=80&w=1326&ixlib=rb-4.0.3&ixid=M3wxMjA3fDB8MHxwaG90by1wYWdlfHx8fGVufDB8fHx8fA%3D%3D,http://www.gangseo.seoul.kr/new_portal/dong/index.jsp?dnum=3&dcode=DC2,정확한 가격은 지자체에 문의,02-2600-7386
154,1,헬스(가양3동 주민센터),강서구,서울 강서구 허준로 202,37.56108697,126.8605577,목요일 14:00~15:00,유료,https://images.unsplash.com/photo-1517963879433-6ad2b056d712?auto=format&fit=crop&q=80&w=1170&ixlib=rb-4.0.3&ixid=M3wxMjA3fDB8MHxwaG90by1wYWdlfHx8fGVufDB8fHx8fA%3D%3D,,정확한 가격은 지자체에 문의,02-2600-7865
155,1,헬스(등촌3동주민센터),강서구,서울 강서구 화곡로63길 96,37.55888771,126.8479185,월요일 14:00~15:20,유료,https://images.unsplash.com/photo-1517963879433-6ad2b056d712?auto=format&fit=crop&q=80&w=1170&ixlib=rb-4.0.3&ixid=M3wxMjA3fDB8MHxwaG90by1wYWdlfHx8fGVufDB8fHx8fA%3D%3D,,정확한 가격은 지자체에 문의,02-2600-7445
156,1,헬스(공항동주민센터),강서구,서울 강서구 송정로 45,37.55878281,126.8100743,수요일 14:00~15:00,유료,https://images.unsplash.com/photo-1517963879433-6ad2b056d712?auto=format&fit=crop&q=80&w=1170&ixlib=rb-4.0.3&ixid=M3wxMjA3fDB8MHxwaG90by1wYWdlfHx8fGVufDB8fHx8fA%3D%3D,,정확한 가격은 지자체에 문의,02-2600-7935
157,1,배드민턴(우장산 배드민턴장),강서구,서울 강서구 화곡동,37.5362848,126.8489523,"수,금 10:00~11:20",유료,https://images.unsplash.com/photo-1521537634581-0dced2fee2ef?auto=format&fit=crop&q=80&w=1170&ixlib=rb-4.0.3&ixid=M3wxMjA3fDB8MHxwaG90by1wYWdlfHx8fGVufDB8fHx8fA%3D%3D,,정확한 가격은 지자체에 문의,
158,1,헬스(가양2동 주민센터),강서구,서울 강서구 허준로 93 ,37.56739892,126.8512712,화요일 14:00~15:00,유료,https://images.unsplash.com/photo-1517963879433-6ad2b056d712?auto=format&fit=crop&q=80&w=1170&ixlib=rb-4.0.3&ixid=M3wxMjA3fDB8MHxwaG90by1wYWdlfHx8fGVufDB8fHx8fA%3D%3D,,정확한 가격은 지자체에 문의,02-2600-7825
159,1,뉴스포츠(기쁜우리복지관 강당),강서구,서울 강서구 허준로65,37.56927822,126.8488644,목 10:20~11:40,유료,https://img.freepik.com/free-photo/sports-tools_53876-138077.jpg?w=1060&t=st=1698657803~exp=1698658403~hmac=00859a66d1826f1d0158cc6967a418d2f3d17963e36f9a4ae3ce9aad1d510e73,http://www.gibbun.or.kr,정확한 가격은 지자체에 문의,02-3665-3831
160,1,탁구(공항동주민센터 강당),강서구,서울 강서구 송정로 45,37.55878281,126.8100743,수 13:00~14:20,유료,https://images.unsplash.com/photo-1564518440696-ef272968778e?auto=format&fit=crop&q=80&w=1170&ixlib=rb-4.0.3&ixid=M3wxMjA3fDB8MHxwaG90by1wYWdlfHx8fGVufDB8fHx8fA%3D%3D,,정확한 가격은 지자체에 문의,
161,1,헬스&근력운동(G.X)(목4동주민센터),양천구,양천구 목동중앙로25(목동),37.53243314,126.8683948,"수,금 10:00~11;30",유료,https://images.unsplash.com/photo-1517963879433-6ad2b056d712?auto=format&fit=crop&q=80&w=1170&ixlib=rb-4.0.3&ixid=M3wxMjA3fDB8MHxwaG90by1wYWdlfHx8fGVufDB8fHx8fA%3D%3D,https://www.yangcheon.go.kr/dong/mok04/main.do,정확한 가격은 지자체에 문의,2620-4000
162,1,헬스&근력운동(G.X)(신월4동주민센터),양천구,양천구 오목로5길 34(신월동),37.52469581,126.8400811,화 09:30~11:30 / 금 14:30~15:15,유료,https://images.unsplash.com/photo-1517963879433-6ad2b056d712?auto=format&fit=crop&q=80&w=1170&ixlib=rb-4.0.3&ixid=M3wxMjA3fDB8MHxwaG90by1wYWdlfHx8fGVufDB8fHx8fA%3D%3D,https://www.yangcheon.go.kr/dong/sinwol04/main.do,정확한 가격은 지자체에 문의,2620-4110
163,1,근력운동(양천보건소),양천구,양천구 목동서로 339(신정동) ,37.51770616,126.8657394,"월, 목 10:00~10:50",유료,https://images.unsplash.com/photo-1517963879433-6ad2b056d712?auto=format&fit=crop&q=80&w=1170&ixlib=rb-4.0.3&ixid=M3wxMjA3fDB8MHxwaG90by1wYWdlfHx8fGVufDB8fHx8fA%3D%3D,http://www.yangcheon.go.kr/health/health/main.do,정확한 가격은 지자체에 문의,2620-3114
164,1,탁구(목동종합사회복지관),양천구,서울양천구 목동중앙북로8길104,37.54424009,126.8663764,금 15:00~16:40 / 금 16:40~18:00,유료,https://images.unsplash.com/photo-1564518440696-ef272968778e?auto=format&fit=crop&q=80&w=1170&ixlib=rb-4.0.3&ixid=M3wxMjA3fDB8MHxwaG90by1wYWdlfHx8fGVufDB8fHx8fA%3D%3D,http://sseoul.or.kr/,정확한 가격은 지자체에 문의,02-2651-2333
165,1,탁구(신정종합사회복지관),양천구,서울 양천구 신정중앙로 36,37.52730285,126.8555308,화 16:50~17:30,유료,https://images.unsplash.com/photo-1564518440696-ef272968778e?auto=format&fit=crop&q=80&w=1170&ixlib=rb-4.0.3&ixid=M3wxMjA3fDB8MHxwaG90by1wYWdlfHx8fGVufDB8fHx8fA%3D%3D,http://sseoul.or.kr/,정확한 가격은 지자체에 문의,02-2651-2333
166,1,탁구(신정종합사회복지관),양천구,서울양천구 목동중앙북로8길104,37.54424009,126.8663764,화 16:00~16:40,유료,https://images.unsplash.com/photo-1564518440696-ef272968778e?auto=format&fit=crop&q=80&w=1170&ixlib=rb-4.0.3&ixid=M3wxMjA3fDB8MHxwaG90by1wYWdlfHx8fGVufDB8fHx8fA%3D%3D,http://sseoul.or.kr/,정확한 가격은 지자체에 문의,02-2651-2332
167,1,헬스(홍제천 인근),서대문구,서울 서대문구 연희동 170-181,37.5798169,126.9356641,월 10:00~12:00 / 수 10:00~12:00,유료,https://images.unsplash.com/photo-1517963879433-6ad2b056d712?auto=format&fit=crop&q=80&w=1170&ixlib=rb-4.0.3&ixid=M3wxMjA3fDB8MHxwaG90by1wYWdlfHx8fGVufDB8fHx8fA%3D%3D,,정확한 가격은 지자체에 문의,02-330-1126
168,1,"스트레칭, 헬스(도림동자치센터 헬스장)",영등포구,서울특별시 영등포구 도영로7길 10,37.5094934,126.8959996,수 09:20~10:40,유료,https://images.unsplash.com/photo-1517963879433-6ad2b056d712?auto=format&fit=crop&q=80&w=1170&ixlib=rb-4.0.3&ixid=M3wxMjA3fDB8MHxwaG90by1wYWdlfHx8fGVufDB8fHx8fA%3D%3D,,정확한 가격은 지자체에 문의,02-832-1780
169,1,"스트레칭, 헬스(신길3동주민센터 헬스장)",영등포구,서울특별시 영등포구 신길로41라길 13-8,37.50729867,126.9077496,화 09:50~11:10,유료,https://images.unsplash.com/photo-1517963879433-6ad2b056d712?auto=format&fit=crop&q=80&w=1170&ixlib=rb-4.0.3&ixid=M3wxMjA3fDB8MHxwaG90by1wYWdlfHx8fGVufDB8fHx8fA%3D%3D,,정확한 가격은 지자체에 문의,02-846-9697
170,1,"스트레칭,헬스(영등포구자치회관헬스장)",영등포구,영등포구 국회대로44길4 ,37.52538799,126.9036383,화 09:30~10:40,유료,https://images.unsplash.com/photo-1517963879433-6ad2b056d712?auto=format&fit=crop&q=80&w=1170&ixlib=rb-4.0.3&ixid=M3wxMjA3fDB8MHxwaG90by1wYWdlfHx8fGVufDB8fHx8fA%3D%3D,,정확한 가격은 지자체에 문의,02-2068-8810
171,1,걷기(경춘선 숲길),노원구,서울 노원구 공릉동 320-2,37.6213792,127.0782522,"월,수 10:00~11:20 / 화,목 10:00~11:20 / 목, 금 10:00~11:20 / 월, 금 10:00~11:20",유료,https://images.unsplash.com/photo-1487956382158-bb926046304a?auto=format&fit=crop&q=80&w=1171&ixlib=rb-4.0.3&ixid=M3wxMjA3fDB8MHxwaG90by1wYWdlfHx8fGVufDB8fHx8fA%3D%3D,,정확한 가격은 지자체에 문의,
172,1,테라밴드(수유1동주민센터),강북구,강북구 삼양로 299,37.6300516,127.0175594,월 16:00~16:45,유료,https://images.unsplash.com/photo-1517130038641-a774d04afb3c?auto=format&fit=crop&q=80&w=1170&ixlib=rb-4.0.3&ixid=M3wxMjA3fDB8MHxwaG90by1wYWdlfHx8fGVufDB8fHx8fA%3D%3D,,정확한 가격은 지자체에 문의,
173,1,웨이트트레이닝(오동생활체육관),강북구,강북구 오패산로52라길,37.62191458,127.0335235,"화, 목, 금 14:00~16:00",유료,https://images.unsplash.com/photo-1517963879433-6ad2b056d712?auto=format&fit=crop&q=80&w=1170&ixlib=rb-4.0.3&ixid=M3wxMjA3fDB8MHxwaG90by1wYWdlfHx8fGVufDB8fHx8fA%3D%3D,,정확한 가격은 지자체에 문의,02-989-3422
174,1,농구(강북웰빙스포츠센터 3층),강북구,강북구 오현로31길 51,37.63045275,127.0377894,"월, 수 16:00~17:30",유료,https://images.pexels.com/photos/1752757/pexels-photo-1752757.jpeg?auto=compress&cs=tinysrgb&w=1260&h=750&dpr=1,wellbeing.gangbukcmc.seoul.kr,정확한 가격은 지자체에 문의,02-944-2900
175,1,생활체조(정릉e편한세상아파트),성북구,서울 성북구 북악산로 851,37.60025102,127.0183154,금 10:00~10:50,유료,https://img.freepik.com/free-photo/men-and-women-warm-up-before-and-after-exercising_1150-23003.jpg?w=1060&t=st=1698655137~exp=1698655737~hmac=fbcb731e03e38413e76c25c99f1c393cde5bbd5247d2dd3ec385c04c355d58fe,,정확한 가격은 지자체에 문의,02-914-1871
176,1,보디빌딩(용마문화복지센터),중랑구,서울 중랑구 용마산로 393,37.587003,127.0951883,"화, 목 10:00~11:00",유료,https://images.unsplash.com/photo-1526506118085-60ce8714f8c5?auto=format&fit=crop&q=80&w=1287&ixlib=rb-4.0.3&ixid=M3wxMjA3fDB8MHxwaG90by1wYWdlfHx8fGVufDB8fHx8fA%3D%3D,,정확한 가격은 지자체에 문의,
177,1,뮤직복싱(유린원광사회복지관),중랑구,서울 중랑구 신내로 56,37.60447047,127.0959157,화 09:30~10:20,유료,https://images.pexels.com/photos/4753923/pexels-photo-4753923.jpeg?auto=compress&cs=tinysrgb&w=1260&h=750&dpr=1,http://www.yurin.or.kr/,정확한 가격은 지자체에 문의,0507-1349-4011
178,1,생활체조(기원주간보호센터),은평구,서울 은평구 통일로87길 6-19,37.62387621,126.9188258,목 14:00~14:50,유료,https://img.freepik.com/free-photo/men-and-women-warm-up-before-and-after-exercising_1150-23003.jpg?w=1060&t=st=1698655137~exp=1698655737~hmac=fbcb731e03e38413e76c25c99f1c393cde5bbd5247d2dd3ec385c04c355d58fe,http://www.kiwon.org/ ,정확한 가격은 지자체에 문의,
179,1,요가(두근두근도서관),은평구,서울 은평구 진관2로 90,37.63380608,126.9256884,"수, 금 10:00~10:50 ",유료,https://images.unsplash.com/photo-1544367567-0f2fcb009e0b?auto=format&fit=crop&q=80&w=1220&ixlib=rb-4.0.3&ixid=M3wxMjA3fDB8MHxwaG90by1wYWdlfHx8fGVufDB8fHx8fA%3D%3D,,정확한 가격은 지자체에 문의,
180,1,요가(산책마을 작은도서관),은평구,서울 은평구 연서로 46길 7 ,37.63396525,126.9326829,"월, 목 10:00~10:50",유료,https://images.unsplash.com/photo-1544367567-0f2fcb009e0b?auto=format&fit=crop&q=80&w=1220&ixlib=rb-4.0.3&ixid=M3wxMjA3fDB8MHxwaG90by1wYWdlfHx8fGVufDB8fHx8fA%3D%3D,,정확한 가격은 지자체에 문의,02-351-3677
181,1,배드민턴( 용두문화복지센터 (체육관)),동대문구,서울 동대문구 고산자로28길 13,37.57532359,127.0391728,"화, 수 10:00~11:30",유료,https://images.unsplash.com/photo-1521537634581-0dced2fee2ef?auto=format&fit=crop&q=80&w=1170&ixlib=rb-4.0.3&ixid=M3wxMjA3fDB8MHxwaG90by1wYWdlfHx8fGVufDB8fHx8fA%3D%3D,,정확한 가격은 지자체에 문의,02-6929-2647
182,1,라인댄스(광장종합사회복지관),광진구,서울 광진구 아차산로66길 8 2층,37.54103356,127.0970671,금 14:00~14:50,유료,https://plus.unsplash.com/premium_photo-1681492508069-d558d8fa0ad7?auto=format&fit=crop&q=80&w=1171&ixlib=rb-4.0.3&ixid=M3wxMjA3fDB8MHxwaG90by1wYWdlfHx8fGVufDB8fHx8fA%3D%3D,http://www.gj.or.kr/xe/,정확한 가격은 지자체에 문의,
183,1,댄스스포츠(자양종합사회복지관),광진구,서울 광진구 자양번영로 35,37.53289841,127.0752337,수 15:00~16:00,유료,https://plus.unsplash.com/premium_photo-1681492508069-d558d8fa0ad7?auto=format&fit=crop&q=80&w=1171&ixlib=rb-4.0.3&ixid=M3wxMjA3fDB8MHxwaG90by1wYWdlfHx8fGVufDB8fHx8fA%3D%3D,http://www.jayang.or.kr/,정확한 가격은 지자체에 문의,02-458-1665
184,1,배드민턴(광장종합사회복지관),광진구,서울 광진구 아차산로66길 8 2층,37.54103356,127.0970671,화 16:10~17:00,유료,https://images.unsplash.com/photo-1521537634581-0dced2fee2ef?auto=format&fit=crop&q=80&w=1170&ixlib=rb-4.0.3&ixid=M3wxMjA3fDB8MHxwaG90by1wYWdlfHx8fGVufDB8fHx8fA%3D%3D,http://www.gj.or.kr/xe/,정확한 가격은 지자체에 문의,
185,1,요가(광장종합사회복지관),광진구,서울 광진구 아차산로66길 8 2층,37.54103356,127.0970671,화 15:30~16:10,유료,https://images.unsplash.com/photo-1544367567-0f2fcb009e0b?auto=format&fit=crop&q=80&w=1220&ixlib=rb-4.0.3&ixid=M3wxMjA3fDB8MHxwaG90by1wYWdlfHx8fGVufDB8fHx8fA%3D%3D,http://www.gj.or.kr/xe/,정확한 가격은 지자체에 문의,
186,1,헬스(광진구청보건소 체력단련실),광진구,서울 광진구 자양로 117,37.53853161,127.0819098,금 09:30~10:30,유료,https://images.unsplash.com/photo-1517963879433-6ad2b056d712?auto=format&fit=crop&q=80&w=1170&ixlib=rb-4.0.3&ixid=M3wxMjA3fDB8MHxwaG90by1wYWdlfHx8fGVufDB8fHx8fA%3D%3D,https://www.gwangjin.go.kr/health/main/main.do,정확한 가격은 지자체에 문의,
187,1,헬스(보건소 보건교육실),광진구,서울 광진구 자양로 117,37.53853161,127.0819098,목 13:30~14:10 / 목 14:10~14:50,유료,https://images.unsplash.com/photo-1517963879433-6ad2b056d712?auto=format&fit=crop&q=80&w=1170&ixlib=rb-4.0.3&ixid=M3wxMjA3fDB8MHxwaG90by1wYWdlfHx8fGVufDB8fHx8fA%3D%3D,www.gwangjin.go.kr/health/main/main.do ,정확한 가격은 지자체에 문의,02-450-1422
188,1,헬스(보건소 체력단련장),광진구,서울 광진구 자양로 117,37.53853161,127.0819098,화 9:20~10:00 / 화 10:00~10:40 / 수 9:20~10:00,유료,https://images.unsplash.com/photo-1517963879433-6ad2b056d712?auto=format&fit=crop&q=80&w=1170&ixlib=rb-4.0.3&ixid=M3wxMjA3fDB8MHxwaG90by1wYWdlfHx8fGVufDB8fHx8fA%3D%3D,www.gwangjin.go.kr/health/main/main.do ,정확한 가격은 지자체에 문의,02-450-1422
189,1,라인댄스(구의1동주민센터),광진구,구의1동주민센터,37.55528505,127.1023537,금 10:40~11:20,유료,https://plus.unsplash.com/premium_photo-1681492508069-d558d8fa0ad7?auto=format&fit=crop&q=80&w=1171&ixlib=rb-4.0.3&ixid=M3wxMjA3fDB8MHxwaG90by1wYWdlfHx8fGVufDB8fHx8fA%3D%3D,https://www.gwangjin.go.kr/dong/main/main.do?dongCd=10,정확한 가격은 지자체에 문의,02-450-1210
190,1,리듬댄스(구의1동주민센터),광진구,구의1동주민센터,37.55528505,127.1023537,금 10:00~10:40,유료,https://plus.unsplash.com/premium_photo-1681492508069-d558d8fa0ad7?auto=format&fit=crop&q=80&w=1171&ixlib=rb-4.0.3&ixid=M3wxMjA3fDB8MHxwaG90by1wYWdlfHx8fGVufDB8fHx8fA%3D%3D,https://www.gwangjin.go.kr/dong/main/main.do?dongCd=10,정확한 가격은 지자체에 문의,02-450-1210
191,1,라인댄스(화양동 주민센터),광진구,서울 광진구 능동로17길 39,37.54652678,127.0712676,목 11:50~12:30,유료,https://plus.unsplash.com/premium_photo-1681492508069-d558d8fa0ad7?auto=format&fit=crop&q=80&w=1171&ixlib=rb-4.0.3&ixid=M3wxMjA3fDB8MHxwaG90by1wYWdlfHx8fGVufDB8fHx8fA%3D%3D,https://www.gwangjin.go.kr/dong/main/main.do?dongCd=10,정확한 가격은 지자체에 문의,02-450-1515
192,1,리듬댄스(화양동 주민센터),광진구,서울 광진구 능동로17길 39,37.54652678,127.0712676,목 11:00~11:40,유료,https://plus.unsplash.com/premium_photo-1681492508069-d558d8fa0ad7?auto=format&fit=crop&q=80&w=1171&ixlib=rb-4.0.3&ixid=M3wxMjA3fDB8MHxwaG90by1wYWdlfHx8fGVufDB8fHx8fA%3D%3D,https://www.gwangjin.go.kr/dong/main/main.do?dongCd=10,정확한 가격은 지자체에 문의,02-450-1515
193,1,라인댄스(자양2동주민센터),광진구,자양2동주민센터,36.34358218,127.4539153,화 14:50~16:30,유료,https://plus.unsplash.com/premium_photo-1681492508069-d558d8fa0ad7?auto=format&fit=crop&q=80&w=1171&ixlib=rb-4.0.3&ixid=M3wxMjA3fDB8MHxwaG90by1wYWdlfHx8fGVufDB8fHx8fA%3D%3D,https://www.gwangjin.go.kr/dong/main/main.do?dongCd=10,정확한 가격은 지자체에 문의,02-450-1603
194,1,근력운동(자양2동주민센터),광진구,자양2동주민센터,36.34358218,127.4539153,화 14:00 ~14:40,유료,https://images.unsplash.com/photo-1517963879433-6ad2b056d712?auto=format&fit=crop&q=80&w=1170&ixlib=rb-4.0.3&ixid=M3wxMjA3fDB8MHxwaG90by1wYWdlfHx8fGVufDB8fHx8fA%3D%3D,https://www.gwangjin.go.kr/dong/main/main.do?dongCd=10,정확한 가격은 지자체에 문의,02-450-1603
195,1,라인댄스(자양1동주민센터),광진구,자양1동주민센터,36.06973351,129.0656911,화 11:50 ~ 12:30,유료,https://plus.unsplash.com/premium_photo-1681492508069-d558d8fa0ad7?auto=format&fit=crop&q=80&w=1171&ixlib=rb-4.0.3&ixid=M3wxMjA3fDB8MHxwaG90by1wYWdlfHx8fGVufDB8fHx8fA%3D%3D,https://www.gwangjin.go.kr/dong/main/main.do?dongCd=10,정확한 가격은 지자체에 문의,02-450-1285
196,1,줌바댄스(자양1동주민센터),광진구,자양1동주민센터,36.06973351,129.0656911,화 11:00 ~ 11:40,유료,https://plus.unsplash.com/premium_photo-1681492508069-d558d8fa0ad7?auto=format&fit=crop&q=80&w=1171&ixlib=rb-4.0.3&ixid=M3wxMjA3fDB8MHxwaG90by1wYWdlfHx8fGVufDB8fHx8fA%3D%3D,https://www.gwangjin.go.kr/dong/main/main.do?dongCd=10,정확한 가격은 지자체에 문의,02-450-1285
197,1,요가(구립장애인주간보호센터),용산구,용산구 한강대로 331 3층,37.54790166,126.9714991,목 14:30 ~15:10 / 금 14:30 ~15:10,유료,https://images.unsplash.com/photo-1544367567-0f2fcb009e0b?auto=format&fit=crop&q=80&w=1220&ixlib=rb-4.0.3&ixid=M3wxMjA3fDB8MHxwaG90by1wYWdlfHx8fGVufDB8fHx8fA%3D%3D,https://happylog.naver.com/hlog/yongsan4282/home,정확한 가격은 지자체에 문의,02-701-4282
198,1,요가(구립용산장애인복지관),용산구,효창원로 93길 49,37.54730707,126.961569,월 13:40 ~14:20 / 목 13:00 ~13:40 ,유료,https://images.unsplash.com/photo-1544367567-0f2fcb009e0b?auto=format&fit=crop&q=80&w=1220&ixlib=rb-4.0.3&ixid=M3wxMjA3fDB8MHxwaG90by1wYWdlfHx8fGVufDB8fHx8fA%3D%3D,http://www.ysrehab.or.kr/,정확한 가격은 지자체에 문의,070-4657-2018
199,1,요가(효창주민센터),용산구,효창원로 161 효창주민센터 5층 대강당,37.54250834,126.9618379,월 11:00 ~11:50 / 수 11:00 ~11:50,유료,https://images.unsplash.com/photo-1544367567-0f2fcb009e0b?auto=format&fit=crop&q=80&w=1220&ixlib=rb-4.0.3&ixid=M3wxMjA3fDB8MHxwaG90by1wYWdlfHx8fGVufDB8fHx8fA%3D%3D,,정확한 가격은 지자체에 문의,
200,1,스트레칭(효창종합사회복지관),용산구,효창동 5-65,37.54118506,126.9630008,월 09:30 ~ 12:00 / 수 09:30 ~ 12:00 / 금 09:30 ~ 12:00,유료,https://images.unsplash.com/photo-1552196563-55cd4e45efb3?auto=format&fit=crop&q=80&w=1326&ixlib=rb-4.0.3&ixid=M3wxMjA3fDB8MHxwaG90by1wYWdlfHx8fGVufDB8fHx8fA%3D%3D,https://www.hyochang.or.kr:6017/,정확한 가격은 지자체에 문의,
201,1,테라밴드(효창종합사회복지관),용산구,효창동 5-65,37.54118506,126.9630008,목 09:30 ~ 12:00,유료,https://images.unsplash.com/photo-1517130038641-a774d04afb3c?auto=format&fit=crop&q=80&w=1170&ixlib=rb-4.0.3&ixid=M3wxMjA3fDB8MHxwaG90by1wYWdlfHx8fGVufDB8fHx8fA%3D%3D,https://www.hyochang.or.kr:6017/,정확한 가격은 지자체에 문의,
202,1,덤벨체조(효창종합사회복지관),용산구,효창동 5-65,37.54118506,126.9630008,화 09:30 ~ 12:00,유료,https://images.pexels.com/photos/39671/physiotherapy-weight-training-dumbbell-exercise-balls-39671.jpeg?auto=compress&cs=tinysrgb&w=1260&h=750&dpr=1,https://www.hyochang.or.kr:6017/,정확한 가격은 지자체에 문의,
203,1,헬스(신당종합사회복지관),중구,중구 동호로11길 22 신당종합사회복지관,37.55436136,127.0095231,수 15:00 ~ 15:40,유료,https://images.unsplash.com/photo-1517963879433-6ad2b056d712?auto=format&fit=crop&q=80&w=1170&ixlib=rb-4.0.3&ixid=M3wxMjA3fDB8MHxwaG90by1wYWdlfHx8fGVufDB8fHx8fA%3D%3D,http://www.shindang.or.kr/,정확한 가격은 지자체에 문의,02-2231-1876
204,1,기타체육(종로1234가동주민센터),종로구,"서울특별시 종로구 삼일대로30길 47 종로1,2,3,4가동 주민센터",37.57449203,126.9902334,월 16:00 ~ 16:40,유료,https://images.unsplash.com/photo-1487956382158-bb926046304a?auto=format&fit=crop&q=80&w=1171&ixlib=rb-4.0.3&ixid=M3wxMjA3fDB8MHxwaG90by1wYWdlfHx8fGVufDB8fHx8fA%3D%3D,,정확한 가격은 지자체에 문의,02-2148-5253
205,4,1984,마포구,마포구 동교로 194 혜원빌딩,37.55738472,126.9228861,,무료,https://bookshopmap.s3.ap-northeast-2.amazonaws.com/venue/1984-cover.JPG,https://www.instagram.com/1984store,새책방      ,02-325-1984
206,4,C&S서점,강남구,강남구 남부순환로 2806 군인공제회관 지하1층,37.48910918,127.0529141,,무료,https://search.pstatic.net/common/?autoRotate=true&quality=100&type=f640_380&src=https%3A%2F%2Fldb-phinf.pstatic.net%2F20150901_60%2F1441048528793tMKht_JPEG%2FSUBMIT_1285757803699_13514755.jpg,,새책방      ,02-2190-2178
207,4,Foreign book store,용산구,용산구 녹사평대로 208,37.53624637,126.9872269,,무료,https://mblogthumb-phinf.pstatic.net/MjAyMzAxMDVfMjkx/MDAxNjcyOTI5ODg5NzA3.DjqdqEW2ahbKinzokoVFBynwXno4sLd2U5HLxl_gHt0g.nf9Glw6EBNPQjtChjm4IXPmqirdurq1P_ytteQEegf4g.JPEG.smith0715/IMG_1761.jpg?type=w800,https://www.instagram.com/itaewon_foreign_bookstore,헌책방      ,02-793-8249
208,4,SK문고,강북구,강북구 솔샘로 215 2층,37.6202008,127.0166087,,무료,https://search.pstatic.net/common/?autoRotate=true&quality=100&type=f640_380&src=https%3A%2F%2Fldb-phinf.pstatic.net%2F20210609_56%2F1623224035353AwCBA_JPEG%2FrQLT8HF4njCqa8fuNmRatFKo.jpg,,새책방      ,02-945-1959
209,4,YES24 중고매장(목동점),양천구,양천구 오목로 325 지하 1층,37.52510741,126.873627,,무료,https://image.yes24.com/sysimage/store/photo/mokdong/PhotoTop01.jpg,,헌책방      ,1566-4295
210,4,YES24(강서NC점),강서구,"강서구 강서로56길 17 NC백화점 강서점 8, 9층",37.55993353,126.8404988,,무료,https://image.yes24.com/momo/TopCate3696/MidCate005/369545875(1).jpg,,새책방      ,
211,4,가가77페이지,마포구,마포구 망원로 74-1 지하1층,37.55726128,126.9051793,,무료,"https://image.bookshopmap.com/600,fit,q60/venue/image02.png?ver=1664692007",http://77page.com,새책방      ,
212,4,가람프라자,금천구,금천구 시흥대로41길 95,37.45066173,126.9000346,,무료,https://search.pstatic.net/common/?autoRotate=true&quality=100&type=f640_380&src=https%3A%2F%2Fldb-phinf.pstatic.net%2F20210705_54%2F1625471882963zJabY_JPEG%2F_zUR3rqsMM9tgCbF2E_8tx7g.jpg,,새책방      ,02-891-7474
213,4,감성인간서점,성북구,성북구 돌곶이로 41가길 14-10,37.61868437,127.0446506,,무료,https://bookshopmap.s3.ap-northeast-2.amazonaws.com/venue/KakaoTalk_20220329_145818000_a9e8d841-2.jpeg?ver=1649729481,https://blog.naver.com/dnfladydgk,새책방      ,
214,4,갑을문고,성북구,성북구 화랑로11길 26,37.60330001,127.0421083,,무료,https://search.pstatic.net/common/?autoRotate=true&quality=100&type=f640_380&src=https%3A%2F%2Fldb-phinf.pstatic.net%2F20201016_26%2F1602831320938QrY5j_JPEG%2FNl43EW7hWv-OATbGdg-rDiDM.jpeg.jpg,https://www.instagram.com/gapeul_bookstore,새책방      ,0507-1320-0002
215,4,강동헌책방,강동구,강동구 구천면로 257,37.54327293,127.1316483,,무료,https://mblogthumb-phinf.pstatic.net/MjAyMTA4MTBfMTI2/MDAxNjI4NTY4NDEzOTc5.7MEAeBcZrNmYik5Zh5CwuZIIrzaTp0UcTkKgKGyLKXkg.yEcwLa2jenbD99Xf-_CVZvCWpHEZo1XeCL-NiO1UUOMg.JPEG.moojum419/20210810%EF%BC%BF122041.jpg?type=w800,,헌책방      ,02-471-0272
216,4,강서책서점,양천구,양천구 목동중앙남로 28,37.53647642,126.8673893,,무료,https://mblogthumb-phinf.pstatic.net/MjAyMjA3MDJfMjY5/MDAxNjU2Njk4NTczMTkz.7DeXXikM4qGKNj7CiEx5Mu1wc1LBtvwdZtt34xF-2uEg.U-C6CjvcNz-fQ94SnQk9g5Z6iBau78GSFk87AKJQ3Z4g.JPEG.golfer36/20220701%EF%BC%BF170557.jpg?type=w800,,새책방      ,02-651-1085
217,4,개똥이네(가양점),강서구,강서구 양천로 431 지하 1층,37.56426405,126.8499602,,무료,https://modo-phinf.pstatic.net/20180524_48/1527146423518Mkiij_JPEG/mosaooU2vk.jpeg?type=f320_320,,헌책방      ,02-2658-2982 
218,4,개똥이네(노원점),노원구,노원구 동일로217가길 17 2층,37.6533222,127.0593697,,무료,https://modo-phinf.pstatic.net/20180626_112/1530022524766a9Rsh_JPEG/mosagZPabB.jpeg?type=f320_320,,헌책방      ,02-951-2989
219,4,개똥이네(영등포점),영등포구,영등포구 여의대방로62길 2 5층,37.51381602,126.9266765,,무료,https://mblogthumb-phinf.pstatic.net/MjAxOTAyMjBfNDIg/MDAxNTUwNjM2ODI1ODMz.dALpGijeu5Xds8rS2dVJuK7WLs8kLWief6UdEcEVxUcg.rddIdFb_PEXV7xYTbbmBLrYYoxw1_oI8EF2QTEaQvv4g.JPEG.ranran115200/SE-085c1587-1cd4-46f7-83c1-2ee416c09702.jpg?type=w800,,헌책방      ,02-822-2989
220,4,개똥이네(잠실점),송파구,송파구 올림픽로35길 93 지하1층 상가 118호,37.51773252,127.1044332,,무료,https://mblogthumb-phinf.pstatic.net/MjAyMjA1MzFfMjQy/MDAxNjUzOTc5NzcyNzY4.ZxkCwmeP01ZK8jDn6Vylfkg_QrUht0Qo5Lwp1OlkH7Ig.783_kvzGGscrGqcpKJOvvgFUrelyuvBf6JZq1Ms0pA8g.JPEG.a125115/%EA%B0%9C%EB%98%A5%EC%9D%B4%EB%84%A4%EC%9E%A0%EC%8B%A4%EC%A0%90%EB%A7%A4%EC%9E%A51.jpg?type=w800,,헌책방      ,02-445-2989
221,4,개롱서적,송파구,송파구 오금로 414 명문빌딩 지하1층,37.49720786,127.1359163,,무료,https://mblogthumb-phinf.pstatic.net/MjAxNjExMTlfODEg/MDAxNDc5NDg0NDY4NjI2.OidRmh2v8LjJ8cvn-NGGebgbagNCDN8Ohw4oXk1hU14g.gC4bsLViNqGn00CEi7HDCq7JmXnyGvcBwk7GTE80m0sg.JPEG.qufrjfek10/SAM_4999.JPG?type=w800,,새책방      ,02-403-1603
222,4,거북서점,노원구,노원구 상계로 115,37.6576976,127.0674937,,무료,https://www.seoulbookbogo.kr/front/img/2spic09_3.jpg,,헌책방      ,
223,4,경일서점,성동구,성동구 성수일로 33 지하1층,37.54364277,127.0491876,,무료,https://search.pstatic.net/common/?autoRotate=true&quality=100&type=f640_380&src=https%3A%2F%2Fldb-phinf.pstatic.net%2F20181005_226%2F1538721309504bXVPi_JPEG%2FOSPj9cBu-SGeXvnK8YyNsux5.jpg,,새책방      ,02-497-5670
224,4,계성문고,성북구,성북구 길음로 33 2층 22호,37.60504925,127.0220094,,무료,https://img.etoday.co.kr/pto_db/2020/08/20200828130926_1503503_1199_799.jpg,https://www.facebook.com/Gyeseongbooks,새책방      ,02-943-5398
225,4,고래서점,용산구,용산구 한강대로 307,37.54572765,126.9715375,,무료,https://search.pstatic.net/common/?autoRotate=true&quality=100&type=f640_380&src=https%3A%2F%2Fldb-phinf.pstatic.net%2F20190519_87%2F1558271704352KQHvB_JPEG%2FIWWpSUesmB4n7z5SPUawaj4d.jpg,http://www.bookgore.com/,새책방      ,02-717-8346
226,4,고시책사랑,관악구,관악구 호암로26길 27,37.4706007,126.9352363,,무료,https://search.pstatic.net/common/?autoRotate=true&quality=100&type=f640_380&src=https%3A%2F%2Fldb-phinf.pstatic.net%2F20150901_179%2F1441055340188s37bS_JPEG%2FSUBMIT_1401879527622_11850756.jpg,,헌책방      ,02-871-5550
227,4,고요서사,용산구,용산구 신흥로15길 18-4,37.54437666,126.9858576,,무료,"https://image.bookshopmap.com/600,fit,q60/venue/goyo_bookshop1.jpg",http://blog.naver.com/goyo_bookshop,새책방      ,0507-1410-4226
228,4,곰서점,동작구,동작구 양녕로 186 지하1층,37.49791392,126.9435904,,무료,https://mblogthumb-phinf.pstatic.net/20160729_178/jung1w_1469752286917R2sNc_JPEG/attachImage_4115552710.jpeg?type=w800,,새책방      ,02-821-5672
229,4,공간과몰입,종로구,종로구 낙산길 19,37.58054788,127.0055969,,무료,https://bookshopmap.s3.ap-northeast-2.amazonaws.com/venue/F1201440-53FF-4619-89AE-F511BCAD8D23_2994fe17.jpeg?ver=1643524930,https://blog.naver.com/gggmolip,새책방      ,
230,4,공상온도,마포구,마포구 동교로 23길40 지하1층,37.55765748,126.9198091,,무료,https://static.comeup.asia/ajaxs/05a5cf06982ba7892ed2a6d38fe832d6/%EA%B3%B5%EC%83%81%EC%98%A8%EB%8F%84%205.jpg,http://www.gongsangondo.com,새책방      ,0507-1404-0247
231,4,공씨책방(성수점),성동구,성동구 광나루로 130 106호-라,37.55097877,127.0447207,,무료,"https://image.bookshopmap.com/600,fit,q60/venue/%E1%84%80%E1%85%A9%E1%86%BC%E1%84%8A%E1%85%B5%E1%84%8E%E1%85%A2%E1%86%A8%E1%84%87%E1%85%A1%E1%86%BC-%E1%84%89%E1%85%A5%E1%86%BC%E1%84%83%E1%85%A9%E1%86%BC%E1%84%80%E1%85%AE.jpeg",,헌책방      ,
232,4,공씨책방(신촌점),서대문구,서대문구 신촌로 55-2,37.5568761,126.932749,,무료,https://bookshopmap.s3.ap-northeast-2.amazonaws.com/venue/%E1%84%80%E1%85%A9%E1%86%BC%E1%84%8A%E1%85%B5%E1%84%8E%E1%85%A2%E1%86%A8%E1%84%87%E1%85%A1%E1%86%BC-%E1%84%89%E1%85%B5%E1%86%AB%E1%84%8E%E1%85%A9%E1%86%AB%E1%84%8C%E1%85%A5%E1%86%B7-%E1%84%8B%E1%85%A1%E1%87%81.jpg,,헌책방      ,02-336-3058
233,4,공일서점,노원구,노원구 공릉로 101 경동상가,37.61930144,127.0778417,,무료,https://storage.googleapis.com/real-seoul-image/place/da1c519b-85db-4ed9-8ee1-508063e610f3.png,,새책방      ,02-972-6407
234,4,과학책방 갈다,종로구,종로구 삼청로10길 18,37.58763566,126.9820384,,무료,https://storage.googleapis.com/cr-resource/image/27cf9b9af0f70922d4875dd55b58aa80/galdar/1920/c7efdd869082a4cadc72b06ac3b887fe.jpg,http://galdar.kr,새책방      ,0507-1314-1018
235,4,관객의취향,관악구,관악구 관악로 204 3층 301호,37.48296173,126.9542948,,무료,https://image.yes24.com/images/chyes24/froala/0/51470/73150.jpg,http://smartstore.naver.com/yourtastebook,새책방      ,070-8818-2046 
236,4,광명문고,은평구,은평구 수색로 268 지하 1층,37.5829395,126.8947019,,무료,https://dnvefa72aowie.cloudfront.net/origin/smb/202005/5697bd6889e3719f5997a818146bf886ef59fc36d9af24071f56013ca77c464d.webp?q=95&s=1440x1440&t=inside,https://blog.naver.com/herryqrio ,새책방      ,02-303-0524
237,4,광진서적,광진구,광진구 광나루로36길 76,37.5416637,127.0854335,,무료,https://mblogthumb-phinf.pstatic.net/MjAxOTEwMjVfMTIy/MDAxNTcyMDEyMzE2NTMw.0vqDV69mYS0S1iiXuaaec1UkrZUe9wbs-I_x6WZBp6Ig.wCr1qD6sJCfRjqCD8tYMFNARlkVOmby8W86gJFqE73gg.JPEG.ydss0561/SE-5043227b-06c0-4b16-939a-1f40427d5e36.jpg?type=w800,,새책방      ,02-455-2999
238,4,교보문고(가든파이브 바로드림센터),송파구,"송파구 충민로 66, 가든파이브 라이프 리빙관 현대시티몰 4층",37.47761484,127.1249618,,무료,https://mblogthumb-phinf.pstatic.net/MjAyMDA2MjFfMjc5/MDAxNTkyNzI5ODg4MDA3.xCSCYlX52OGjsirjeHI4dk2kSbF6KAbqSgkpVbbhSzsg.x9wUyRL3cvC3sqZdn5y6DsVfJQwZUM2vZ0XwPfJB-twg.JPEG.hyehwa0056/1592729888719.jpg?type=w800,,새책방      ,1544-1900
239,4,교보문고(강남점),서초구,"서초구 강남대로 465, 교보타워 지하 1~지하 2층",37.50375605,127.0241095,,무료,https://mblogthumb-phinf.pstatic.net/MjAxNzAzMjhfMzQg/MDAxNDkwNjg5ODAzMDQx.i2u2AFSdAXlJDb4OauWnLesm2zqHCw1z_s9JQVhPAMEg.fa6RITZidyVuV5mOczC5kGVNDiaQcUYkYGDnVRbJp8Yg.JPEG.digitalhippy/image_9481413161490689780258.jpg?type=w800,https://www.kyobobook.co.kr/store/?storeCode=015,새책방      ,1544-1900
240,4,교보문고(건대 바로드림센터),광진구,능동로 92 롯데백화점 스타시티점 지하1층,37.53899977,127.0712144,,무료,https://mblogthumb-phinf.pstatic.net/MjAyMjAxMDRfMjU2/MDAxNjQxMzA0ODEzODYw.PbRqIDmUQujeSyOx8fiNIbCUQFnCDFOz1l7KzV_3o60g.XATHLx-OPWYwIzUHWZdGTAFVeWjtxQYNviN6SdDVgakg.JPEG.digitalhippy/SE-a17ca7b4-561e-474b-b28c-9f4960940856.jpg?type=w800,,새책방      ,1544-1900
241,4,교보문고(광화문점),종로구,"종로구 종로 1, 교보생명빌딩 지하 1층",37.57095784,126.9779288,,무료,https://contents.kyobobook.co.kr/etc/ec/store/582be99d99744cbba145b19b2b153fae.png,,새책방      ,1544-1900
242,4,교보문고(디큐브시티 바로드림센터),구로구,"구로구 경인로 662, 현대백화점 지하 1층",37.50812307,126.888213,,무료,https://mblogthumb-phinf.pstatic.net/MjAyMDA2MTJfNzYg/MDAxNTkxOTU5Mjg1ODA1.0zzXqz6VOF42ibWhpmwX8umD0idYQVU4zisxJCIR6EEg.RzW3_14Ljj6GybkURnj3xJb-L5j9l5Xy_m17k6S37K8g.JPEG.digitalhippy/SE-0ee93bff-9931-420a-8959-9578503b5cb0.jpg?type=w800,,새책방      ,1544-1900
243,4,교보문고(수유 바로드림센터),강북구,"강북구 도봉로 348, 교보생명빌딩 지하 1층",37.6383189,127.0265481,,무료,https://mblogthumb-phinf.pstatic.net/MjAyMTExMDdfNjIg/MDAxNjM2Mjg2NTA1NTQx.rbcr5mLI45JasxUG8A--d3UJSb6Ieg6Zyk9rA7u_iR8g.UxQW-OicuA3Q7grUtmeeAD8TjxMy1gnNTSxThoHIVWkg.JPEG.digitalhippy/SE-01dac053-eda7-40c1-82d5-2cd614511953.jpg?type=w800,,새책방      ,1544-1900
244,4,교보문고(은평 바로드림센터),은평구,"은평구 통일로 1050, 롯데몰 3층",37.63753667,126.9179003,,무료,https://newsmanager2.etomato.com/userfiles/image/16%EA%B8%B0%20%EA%B6%8C%EC%9D%B5%EB%8F%84/%EC%9D%80%ED%8F%89%20%EB%B0%94%EB%A1%9C%EB%93%9C%EB%A6%BC%EC%84%BC%ED%84%B0%202.jpg,,새책방      ,1544-1900
245,4,교보문고(잠실점),송파구,"송파구 올림픽로 269, 롯데캐슬골드 지하 1층",37.51442735,127.1006114,,무료,https://mblogthumb-phinf.pstatic.net/MjAyMjA2MjBfMTQg/MDAxNjU1NzA3NjcxODY0.pWskdNqJ9z0Z8cbnNQ9UdiyJLFBa2ZZw0pfVHaV3kTcg.cvguVldHXJ9QbEuNPmAMkxQSM6Py1P9dgbvFXTfv_AMg.JPEG.je505050/KakaoTalk_20220620_153855776.jpg?type=w800,,새책방      ,1544-1900
246,4,교보문고(천호점),강동구,"강동구 올림픽로 664, 대우한강베네시티 지하 1층",37.54055538,127.1249758,,무료,https://mblogthumb-phinf.pstatic.net/MjAxOTA1MTRfMjE2/MDAxNTU3ODMyMTcxOTU4.PcEmqHNVc02WC9Tu91zJS1pTX0PpxxXM57GgtkYNuZMg.hoBAXaZCZlLC5wfWgtT1ckB7MtZ4jx_L3pV1PLIpFJgg.JPEG.kiki5730/20190514_194815.jpg?type=w800,,새책방      ,1544-1900
247,4,교보문고(청량리 바로드림센터),동대문구,"동대문구 왕산로 214, 롯데백화점 청량리점 지하 1층",37.58419614,127.0511471,,무료,https://mblogthumb-phinf.pstatic.net/MjAxODEwMzBfMjk4/MDAxNTQwODk2NjU5ODIx.s4IE-Vxzww_uQBMlMTbEI3naEPGlaCgwKcL-uEyP0pYg.Rs4BJPKYu5CKKDqjecum-tv8maXQq0voi1r_UMIO_tgg.JPEG.digitalhippy/image_4459988661540896610209.jpg?type=w800,,새책방      ,1544-1900
248,4,교보문고(합정점),마포구,"마포구 월드컵로3길 14 딜라이트스퀘어 2차(지하 1층), 1차(지하 2층)",37.55100797,126.911649,,무료,https://mblogthumb-phinf.pstatic.net/MjAxNzA0MjZfNTIg/MDAxNDkzMTg2NDkyODI2.0IskcbmIMq_5O9z2c0uIyHp4WiAjLYm7I-8p10Hc4M0g.s-veMTYUQJHjQIHELDxGF1fe5cNM0nXUqsF7cImY9Y4g.JPEG.sits0/%ED%95%A9%EC%A0%95%EB%8F%99_%EA%B5%90%EB%B3%B4%EB%AC%B8%EA%B3%A0_04.jpg?type=w800,,새책방      ,1544-1900
249,4,그날이오면 ,관악구,관악구 신림로 14길 26,37.47189358,126.9383179,,무료,https://img1.daumcdn.net/thumb/R1280x0/?fname=http://t1.daumcdn.net/brunch/service/user/aKW0/image/ocn-4b3DTDGRM7twPsJbLd_PuFM.jpg,http://www.gnal.co.kr,새책방      ,02-885-8290
250,4,그래서,중구,중구 동호로37길 20 A동 2층 132호,37.56872417,127.0008056,,무료,https://bookshopmap.s3.ap-northeast-2.amazonaws.com/venue/glaeso_book.jpg,http://glaeso.shop.blogpay.co.kr,새책방      ,02-2268-3305
251,4,그래픽,용산구,용산구 회나무로39길 33,37.54093281,126.9935916,,무료,https://cdn.designhouse.co.kr/cms/img/2022/03/M.1648432731.3516.2.jpg,https://www.instagram.com/graphic.fan,새책방      ,070-4070-0204
252,4,그래픽,용산구,용산구 회나무로39길 33,37.54093281,126.9935916,,무료,https://cdn.designhouse.co.kr/cms/img/2022/03/M.1648432731.3516.2.jpg,https://www.instagram.com/graphic.fan/,새책방      ,070-4070-0204
253,4,그랜드문고,노원구,노원구 한글비석로 253 지하1층,37.6504237,127.0763481,,무료,https://search.pstatic.net/common/?autoRotate=true&quality=100&type=f640_380&src=https%3A%2F%2Fldb-phinf.pstatic.net%2F20160320_56%2F1458480751398JXoBA_JPEG%2F176270626251257_0.jpeg,https://smartstore.naver.com/grandbooks,새책방      ,02-938-1065
254,4,그림책방 곰곰,마포구,마포구 연남로 61-1,37.56462283,126.9198304,,무료,https://bookshopmap.s3.ap-northeast-2.amazonaws.com/venue/gomgom-c.jpg,https://smartstore.naver.com/gomgombookstore,새책방      ,02-335-2041
255,4,글벗서점,마포구,마포구 신촌로 48,37.55683681,126.9313194,,무료,https://t1.daumcdn.net/thumb/R720x0/?fname=http://t1.daumcdn.net/brunch/service/user/5FsQ/image/GsxN-YsT_jAJNsdrhfv88ehHZxs.jpeg,,헌책방      ,02-333-1382
256,4,글벗서점,강남구,강남구 도곡로 516 삼성상가 지하1층,37.49918128,127.0629879,,무료,https://t1.daumcdn.net/thumb/R720x0/?fname=http://t1.daumcdn.net/brunch/service/user/5FsQ/image/GsxN-YsT_jAJNsdrhfv88ehHZxs.jpeg,,새책방      ,02-557-8910
257,4,글벗서점,은평구,은평구 은평로 66,37.59879593,126.9151238,,무료,https://t1.daumcdn.net/thumb/R720x0/?fname=http://t1.daumcdn.net/brunch/service/user/5FsQ/image/GsxN-YsT_jAJNsdrhfv88ehHZxs.jpeg,,새책방      ,02-302-6621
258,4,글빛문고,양천구,양천구 목동중앙로 43 지하 1층,37.533541,126.8695252,,무료,https://search.pstatic.net/common/?autoRotate=true&quality=100&type=f640_380&src=https%3A%2F%2Fldb-phinf.pstatic.net%2F20200422_203%2F1587550011882jrC2s_JPEG%2F31hcdfZaHCzpeeGIDZVnPRPA.jpeg.jpg,,새책방      ,02-2642-8360
259,4,금지옥엽,중구,중구 청계천로 160 세운청계상가 3층 데크 가열 312호,37.56797986,126.9953651,,무료,https://storage.googleapis.com/real-seoul-image/place/b86ba3e0-839a-4ab7-87f7-c02d95091d2c.png,https://cherishstorage.kr/,새책방      ,02-2273-0220
260,4,기독성문서적,중구,중구 청계천로 274 다26호,37.56942586,127.0080476,,무료,https://mblogthumb-phinf.pstatic.net/MjAyMjAzMTVfNDAg/MDAxNjQ3MzUzNDQzNzc3.zEjefl-heoZBU48EFL1v6fAMehTOdoZ65DyT5BgKdesg.NQttq-0d1jPtcWsou63ug1cL-65HO-NrlRnwdkGPmKAg.JPEG.chumjan/20220311%EF%BC%BF162950.jpg?type=w800,,헌책방      ,02-2279-3902
261,4,깡지서점,관악구,관악구 신림로 30길 21,37.47318034,126.9358177,,무료,https://search.pstatic.net/common/?autoRotate=true&quality=100&type=f640_380&src=https%3A%2F%2Fldb-phinf.pstatic.net%2F20171110_284%2F1510292901868EQw28_JPEG%2FNRGvSRkL4FGb9rWUDAihoTpr.jpg,,헌책방      ,
262,4,꼬리달린책방(협동조합 카페마을),양천구,양천구 목동중앙북로16길 39,37.54447865,126.8739729,,무료,https://mblogthumb-phinf.pstatic.net/MjAxODEwMThfMiAg/MDAxNTM5ODQxMDQ5NDU4.edgOam1FC6REX-xkQhOCg9HwhP5b9jJOVjK51tw24eUg.uW5wy8ua4Gbc3EIqXoOXVMWKr86drj3l-4khxcSIPfwg.JPEG.seoulcoopcenter/1-1.jpeg?type=w800,https://www.instagram.com/tail_bookstore,새책방      ,02-6052-0620
263,4,꽃피는책,양천구,양천구 목동중앙북로16길 58,37.54353549,126.8738048,,무료,https://www.100news.kr/imgdata/100news_kr/202107/2021071307137740.jpg,https://www.instagram.com/blooming__books,새책방      ,0507-1306-0858
264,4,나라문고,강서구,강서구 강서로 247 지하1층,37.54779279,126.8360362,,무료,https://mblogthumb-phinf.pstatic.net/MjAyMTAxMzFfMTk5/MDAxNjEyMDcwMDc5NzM1.KVA4Y8Ij8SLl108MSoeIGGttGJhVEaLRZ31Y1kqR8Ksg.JtJ7IWd9DcVMWzyix6Yx3GKsnAbLtmPL05Seu55ISl8g.JPEG.kdongchae/SE-e6b0f1ed-5de2-11eb-9260-314eb4c2b76e.jpg?type=w800,,새책방      ,02-2603-3231
265,4,나무곁에서서,강서구,강서구 강서로76길 19,37.56934296,126.8426277,,무료,https://search.pstatic.net/common/?autoRotate=true&quality=100&type=f640_380&src=https%3A%2F%2Fldb-phinf.pstatic.net%2F20200812_155%2F1597231324673mpXLi_JPEG%2FVL5TV-YaDocmaKwpl8xwveQ8.jpeg.jpg,https://blog.naver.com/bythetreebooks,새책방      ,
266,4,나비루,송파구,송파구 올림픽로10길 40 102호,37.50818302,127.081577,,무료,https://mblogthumb-phinf.pstatic.net/MjAyMTA2MTFfMjI3/MDAxNjIzMzcxNTgzNjk4.0U7cqH7ncYK3qZk1EFp08DA0njDPSIIiJKvdguEx3YYg.OkxexY8JAKIDWTNDmL0olms5roeHwubjTk3t72X5hCQg.JPEG.songpaculture/%EB%82%98%EB%B9%84%EB%A3%A8(1).jpg?type=w800,https://www.instagram.com/nabirubook,새책방      ,070-7573-3034
267,4,남영서점,동작구,동작구 서달로 149,37.50677051,126.9614626,,무료,https://mblogthumb-phinf.pstatic.net/MjAxNzA4MjlfNjEg/MDAxNTAzOTkwMDkyMDYx.r4N9TktiX6mLA01FZChKs7lA3CdisvYafHlEeiik4VUg.-rlS7B6wkWc01kuxdf47TH0cTY2vYINEjEYStnU8Rqsg.JPEG.greanb/17-08-18-19-21-16-707_photo.jpg?type=w420,,헌책방      ,02-815-3830
268,4,낫저스트북스,성동구,성동구 성덕정9가길 14,37.53887486,127.0512958,,무료,"https://image.bookshopmap.com/600,fit,q60/venue/3172dd6654bb8.jpg",https://notjust-books.com,새책방      ,070-4112-2016
269,4,노른자책방,영등포구,영등포구 선유로9길 30 롯데캐슬상가 207호,37.52443186,126.8847533,,무료,https://bookshopmap.s3.ap-northeast-2.amazonaws.com/venue/norunza_90965756_1067234946971709_3528335831236315508_n.jpg,https://blog.naver.com/norunza-art,새책방      ,0507-1351-0173
270,4,노말에이,중구,중구 마른내로 12 4층,37.56460792,126.9891161,,무료,"https://image.bookshopmap.com/600,fit,q60/venue/newnormala-1-700x700.jpg?ver=1625464464",http://normala.kr,새책방      ,070-4681-5858 
271,4,노원문고 본점,노원구,노원구 동일로 1384 지하1층,37.65234567,127.0615671,,무료,"https://image.bookshopmap.com/600,fit,q60/venue/%E1%84%82%E1%85%A9%E1%84%8B%E1%85%AF%E1%86%AB1.jpeg?ver=1656983783",http://www.nowonbook.com,새책방      ,02-951-0633
272,4,노원문고 제5매장,노원구,노원구 상계로 59 동명빌딩 지하1층,37.65616028,127.0615152,,무료,https://mblogthumb-phinf.pstatic.net/MjAxODA4MThfMjYw/MDAxNTM0NTc2MDQwMzA3.GbfQlz-88UTl2vlxbfAhjo6SySaLL8H96a6uHfoJNtMg.4EMN-LkuKs2ohJBc1BQWcK8e3vBa6iAE6qdIOC6yMXgg.JPEG.cyberyw/1534575257932.jpg?type=w800,http://www.nowonbook.com,새책방      ,02-932-3822
273,4,노원문고 중계점,노원구,노원구 중계로 206 지하1층,37.65084171,127.0775257,,무료,https://thumb.store114.net/640x480/8726097_1622766.jpg,http://www.nowonbook.com,새책방      ,02-2091-0633
274,4,늘벗서점,관악구,관악구 신림로 83,37.47034117,126.9401232,,무료,https://mblogthumb-phinf.pstatic.net/MjAxOTA3MTBfNTcg/MDAxNTYyNzM3MzcxNDYy.razkxicaz8Y5gYPp8dalkbV9UC6C1VwkNy-g6-xwa5og.BCdDafSO61vZgMM_4taQX7aWy0T7bW8QT0BRl0ThwDsg.JPEG.hereis5/IMG_3029.JPG?type=w800,https://nbcpa.co.kr/shop/,새책방      ,02-887-4971
275,4,늘푸른글방,영등포구,영등포구 영등포로 418-1,37.51259902,126.9243748,,무료,https://search.pstatic.net/common/?autoRotate=true&quality=100&type=f640_380&src=https%3A%2F%2Fldb-phinf.pstatic.net%2F20190130_34%2F1548831954775gDtTO_JPEG%2FnT-K0vD09rZid_cQQ1qFbZ4l.jpg,,새책방      ,02-841-5139
276,4,니은서점,은평구,은평구 연서로26길 35,37.61514899,126.9221987,,무료,"https://image.bookshopmap.com/600,fit,q60/venue/book_shop_nieun_89948053_891459657964731_6683372855570462579_n.jpg",https://cafe.naver.com/bookshopnieun,새책방      ,02-6084-8433
277,4,다름상상,광진구,광진구 구의로16길 93,37.54146317,127.0946077,,무료,https://modo-phinf.pstatic.net/20230218_129/1676687163867k3g5G_JPEG/mosao2n31k.jpeg?type=f320_320,https://www.instagram.com/darmsangsang,새책방      ,
278,4,다솜서점,관악구,관악구 난우10길 6 지하1층,37.47606536,126.9180205,,무료,https://search.pstatic.net/common/?autoRotate=true&quality=100&type=f640_380&src=https%3A%2F%2Fldb-phinf.pstatic.net%2F20221201_42%2F1669866758786GBDFi_JPEG%2F1669866531849.jpg,,새책방      ,02-864-1330
279,4,다솜서점,노원구,노원구 동일로 1677 제성빌딩 지하1층,37.67818419,127.0549684,,무료,https://search.pstatic.net/common/?autoRotate=true&quality=100&type=f640_380&src=https%3A%2F%2Fldb-phinf.pstatic.net%2F20221201_42%2F1669866758786GBDFi_JPEG%2F1669866531849.jpg,,새책방      ,02-932-5808
280,4,다시서점,강서구,강서구 공항대로8길 77-24,37.5574055,126.8129789,,무료,https://mblogthumb-phinf.pstatic.net/MjAyMjEwMTNfMjkw/MDAxNjY1NjMxOTkzNDc3.IftBWQAwew9XXisskASuOAYyIST2VG-qGpQvVX9pqUgg.l4TIdiEMazWl9kBxk2WWVXbYJRBldzm5TcOS-4lyXgIg.PNG.seoul_library/%EC%84%9C%EC%9A%B8%ED%98%95%EC%B1%85%EB%B0%A9_%EC%84%9C%EC%A0%90%EC%86%8C%EA%B0%9C__%EB%8B%A4%EC%8B%9C%EC%84%9C%EC%A0%90_%EC%86%8C%EA%B0%9C2.png?type=w800,https://dasibookshop.com,새책방      ,0507-1411-4869
281,4,다온책방,성북구,성북구  한천로68길 31,37.60915189,127.0658626,,무료,https://sbnet.or.kr/sbnet_wp/wp-content/uploads/2018/06/448b4ce0ec61e7b926beefb0717e537b.jpg,,새책방      ,02-6014-1414 
282,4,달걀책방,서대문구,서대문구 성산로9길 43-35,37.56765993,126.9229877,,무료,https://img1.daumcdn.net/thumb/R1280x0.fpng/?fname=http://t1.daumcdn.net/brunch/service/guest/image/L6uEuHg4SMVXyct99WVCOpYC3HU.png,https://www.eggbookshop.com,새책방      ,070-8822-2425
283,4,달마헌책방,관악구,관악구 남부순환로 1925 지하 1층,37.4775252,126.9632763,,무료,https://t1.daumcdn.net/cfile/blog/99D599335D5AB5742D,http://www.dharmabooks.co.kr,헌책방      ,02-811-1256
284,4,당인리책발전소,마포구,마포구 월드컵로14길 10-8,37.555689,126.9111491,,무료,"https://image.bookshopmap.com/600,fit,q60/venue/danginbookplant-building.jpeg",https://www.bronteshop.co.kr,새책방      ,02-8702-1022
285,4,대광서림,중구,중구 청계천로 274 다9호,37.56942586,127.0080476,,무료,https://mblogthumb-phinf.pstatic.net/MjAxOTAzMTJfMzYg/MDAxNTUyMzgxMDI2NzQ1.QF-KFKYicKEXvHCQxrFYtVGyH4pfqD17NsJH2UKBGVQg.K-xHbg8XqQhJpLxjpiVSzwUp241SFPS2lhVtVBjcWp8g.JPEG.medicalforum/SE-e2d10db2-97b3-4119-9638-5331429b2f20.jpg?type=w800,,헌책방      ,02-2272-4741
286,4,대륙서점,동작구,동작구 성대로 40,37.49894128,126.9332915,,무료,"https://image.bookshopmap.com/600,fit,q60/venue/daerukbooks_121598893_998194650649205_5867044620012662778_n.jpg",https://www.instagram.com/daerukbooks,새책방      ,02-821-8878
287,4,대림문고,영등포구,영등포구 대림로 199 건용빌딩,37.49856075,126.8979202,,무료,https://search.pstatic.net/common/?autoRotate=true&quality=100&type=f640_380&src=https%3A%2F%2Fldb-phinf.pstatic.net%2F20150901_73%2F1441054963978kmuyy_JPEG%2F11849680_0.jpg,,새책방      ,02-841-1101
288,4,대민문고,관악구,관악구 관악로 212 관악프라자 지하1층,37.48362314,126.9551835,,무료,https://mblogthumb-phinf.pstatic.net/MjAxODAxMjZfMTEz/MDAxNTE2OTE0NTU1NjY5.oNXiGjCCluSGvHyahFa5G80KKzanY28pz2Sm3wOd5Mwg.0_nFR-CISRO2hof27RXrnFEZiunoXn75iOtf4bWHq2og.JPEG.kjiwon1018/2018-01-08-16-16-28.jpg?type=w800,,새책방      ,02-875-5300
289,4,대영문고,강서구,강서구 양천로 669 2층,37.55185997,126.8712031,,무료,https://search.pstatic.net/common/?autoRotate=true&quality=100&type=f640_380&src=https%3A%2F%2Fldb-phinf.pstatic.net%2F20221222_279%2F1671697168013mRI58_JPEG%2FKakaoTalk_20221222_171505269.jpg,,새책방      ,02-3663-7859
290,4,대원서점,중구,중구 청계천로 274 다12호,37.56942586,127.0080476,,무료,https://search.pstatic.net/common/?autoRotate=true&quality=100&type=f640_380&src=https%3A%2F%2Fldb-phinf.pstatic.net%2F20190131_264%2F1548871653105sq7Yj_JPEG%2Fzzgv2IuHNnRHnCBCmqDzRDt4.jpg,,헌책방      ,02-2273-0109
291,4,대원서점,성북구,성북구 정릉로 241,37.60529785,127.010903,,무료,https://search.pstatic.net/common/?autoRotate=true&quality=100&type=f640_380&src=https%3A%2F%2Fldb-phinf.pstatic.net%2F20190131_264%2F1548871653105sq7Yj_JPEG%2Fzzgv2IuHNnRHnCBCmqDzRDt4.jpg,,새책방      ,0507-1396-0660
292,4,대원책문고,영등포구,영등포구 당산로45길 1 당산 삼성쉐르빌 205호,37.53323429,126.9005103,,무료,https://mblogthumb-phinf.pstatic.net/MjAyMjA4MjNfMjA3/MDAxNjYxMjYwNzY1NjAy.iWep5V8wnx5_1M4rkRuUWY9dKo90vEzzUdguAExfJiUg.s5YwZ7witDA9Hw2xqQLs4IzybIqO0JkkJu0QJRe-rcIg.JPEG.cnnjang/20220716%EF%BC%BF165920.jpg?type=w800,,새책방      ,02-2671-2375 
293,4,대일서점,금천구,금천구 시흥대로 474,37.47586215,126.8990107,,무료,https://dnvefa72aowie.cloudfront.net/business/bizPlatform/profile/14535024/1684208240348/NzgyOWY2OTE5MTZlMTIyOTIwMjM3MDIxN2UyNDMxMzQyZjYzMzJhZGY3YTNjODI5YmQwZTJlZWUyYTI3ODBlZV8wLmpwZWc=.jpeg?q=82&s=640x640&t=crop,,새책방      ,02-853-1948
294,4,대지책문고,강서구,강서구 등촌로39길 13 지하1층,37.54552768,126.8614993,,무료,https://mblogthumb-phinf.pstatic.net/MjAyMTAyMTVfNTMg/MDAxNjEzMzk5Nzc2MzYx.rps35zPt47mUSj4Ac2Tb8o1ePWhmWu9gZd0epmr2I30g.mvjOoFMPXex1EalUGxptDZj-Y0yOKnatRsa4-debpE8g.JPEG.byun720/1613211449570.jpg?type=w800,,새책방      ,02-2644-2650
295,4,대천서점,관악구,관악구 남부순환로 1734 지하1층,37.48198569,126.9427729,,무료,https://search.pstatic.net/common/?autoRotate=true&quality=100&type=f640_380&src=https%3A%2F%2Fldb-phinf.pstatic.net%2F20150831_181%2F1440998033404NNHB9_JPEG%2F106567464476194_0.jpg,,새책방      ,02-878-7557
296,4,더레퍼런스,종로구,종로구 자하문로24길 44,37.58228897,126.9718052,,무료,https://www.the-ref.kr/data/file/program/1375734418_ualSw1BV_3fd047825189ece9822f8ee4ce84b85691867144.jpg,https://www.the-ref.kr,새책방      ,070-4150-3105
297,4,더레퍼런스(서소문점),중구,중구 덕수궁길 61 전시동 3층,37.56410607,126.9736993,,무료,https://inmun360.culture.go.kr/upload/board/image/72/2372872_202209080824545680.png,https://www.the-ref.kr,새책방      ,
298,4,더북소사이어티,종로구,종로구 자하문로19길 25 지하 1층,37.58213209,126.9695429,,무료,https://mblogthumb-phinf.pstatic.net/MjAxOTA5MTlfMjg2/MDAxNTY4ODY2NTc4NDkx.bve4eq25QdqwEDGKf4Byrj_GSTmvYpaUJwQKz-3oW-0g.6ZqqW1heaPkVfFaZrdF-JtBfxVmIQb02vIStX2QiMYUg.JPEG.seoul_library/Thebooksociety__14.jpg?type=w800,http://www.thebooksociety.org,새책방      ,070-8621-5676 
299,4,더북스 신대방점,동작구,상도로 37,37.50001128,126.9246811,,무료,https://search.pstatic.net/common/?autoRotate=true&quality=100&type=f640_380&src=https%3A%2F%2Fldb-phinf.pstatic.net%2F20200315_23%2F1584243058539gM4pe_JPEG%2FHJblzm-ldR0KT8BCy2wICfcQ.jpg,,새책방      ,070-7574-4283
300,4,더북스 한길서점(방배),서초구,서초구 동작대로 132 안석빌딩 지하1층,37.48825796,126.9827699,,무료,https://mblogthumb-phinf.pstatic.net/MjAyMTEwMDZfMTQ0/MDAxNjMzNTE0OTA5MzUx.s4ojo3i-Dg3gMCm-ruqCgQG5V_FpfRICb29M525SnSog.Rs3EcJSIrPAYWH84QSyYsPF9My2R_ASRSdpCADR9674g.JPEG.lhs080661/20211006%EF%BC%BF163209.jpg?type=w800,,새책방      ,02-591-2274
301,4,더숲 초소책방,종로구,종로구 인왕산로 172,37.58595334,126.964277,,무료,https://chosochaekbangs.files.wordpress.com/2020/12/newec9db4ebafb8eca7802.jpg,https://chosobooks.com/,새책방      ,02-735-0206
302,4,덕인서림,중구,중구 청계천로 274 다32호,37.56942586,127.0080476,,무료,https://t1.daumcdn.net/cfile/tistory/99BCA8425AF9A9E135,,헌책방      ,02-2273-8420
303,4,도도봉봉,도봉구,도봉구 도봉로114길 57,37.64767751,127.0374983,,무료,https://mediahub.seoul.go.kr/uploads/mediahub/2022/08/yGHZUxCpQrCpMQudZufyoGBUkOOwOStu.JPG,https://m.blog.naver.com/dodobonbon,새책방      ,0507-143-5335
304,4,도하서림,용산구,용산구 한강대로 104길 45 상아빌딩 401호,37.55057222,126.9746821,,무료,https://mblogthumb-phinf.pstatic.net/MjAyMzAzMDZfMjU2/MDAxNjc4MDY1MDA0MzEx.Sjp47jwPgKSqgz3eTnmscfA2Hymsh2uAfYcTIVVpEDIg.gsCH09czeDQTPj-lQ8G-2dW8l789VXBx51KKkHc8dB0g.JPEG.dw033439/1678056034015%EF%BC%8D1.jpg?type=w800,https://dohabookstore.co.kr,새책방      ,
305,4,도화북스(도화아파트먼트),마포구,마포구 도화2길 27,37.5395405,126.9494904,,무료,"https://image.bookshopmap.com/600,fit,q60/venue/IMG_1745.jpg?ver=1650340861",https://dohwa-apartment.com,새책방      ,02-713-0227
306,4,동남서적,종로구,종로구 종로6가 267-1,37.57104979,127.006996,,무료,https://www.barovone.com/data/upload/company/%EC%A2%85%EB%A1%9C%EB%AC%B8%EA%B3%A0.jpg,,새책방      ,02-2266-0924
307,4,동네책방 원테이블,금천구,금천구 독산로8길 14,37.44934994,126.9063021,,무료,"https://image.bookshopmap.com/600,fit,q60/venue/onetable_o_87755577_232759124429641_1896213711589654987_n.jpg?ver=1623119958",https://www.instagram.com/onetable_o,새책방      ,02-896-0512
308,4,동네책방개똥이네책놀이터,마포구,마포구 월드컵로 128-3,37.55982606,126.9071049,,무료,https://mblogthumb-phinf.pstatic.net/MjAyMTA2MTFfMTQg/MDAxNjIzNDA4MTI4MDcz.v4GdrNqBYjDMbFgXGK_Znyw_JZ09BrxwTjtGvESy9zYg.B4o_UKClW1sqvaWf4agWZ-6UTR--60FyiM8Rp_jSX5Ig.PNG.oinkhoney/SE-c9a29718-52de-4fb5-b1b3-5fff9c94159b.png?type=w800,http://cafe.naver.com/dongneabook,새책방      ,02-338-0478
309,4,동방서적,구로구,구로구 경인로 219 지하1층,37.49681576,126.8450708,,무료,https://mblogthumb-phinf.pstatic.net/MjAxNzAxMDlfNCAg/MDAxNDgzOTQzODQ0Njgy.WzLVV4ce_YBi4lV0QUt-Sq2b1u3Yxo7l3IOPUd7EYqgg.1u7rcaWG4y9DH56VO38aydoc70cogKcbY3Wpqva6s44g.JPEG.bernouihotel/image_2433185121483943768139.jpg?type=w800,,새책방      ,02-2616-9911
310,4,동북문고,강동구,강동구 양재대로 1341 지하1층,37.52615734,127.1351684,,무료,https://mblogthumb-phinf.pstatic.net/MjAyMTAzMTVfMTg1/MDAxNjE1Nzk4ODk2NDMy.I-AhPy5Rndia-EouoShXyuDero-IekUQ0YGKr20C4eMg.2SODmAaUdnvIK1iDdZjbK1taWRzTBjj3goErDvt7zrsg.JPEG.beo-kum/KakaoTalk_20210315_172059895.jpg?type=w800,,새책방      ,02-477-8200
311,4,동신서림,중구,중구 청계천로 246  다139호,37.56936838,127.0047211,,무료,https://seoulbookbogo.kr/front/img/spic02_1.png,,헌책방      ,02-2273-3411
312,4,동아서점,중구,중구 청계천로 274 다11호,37.56942586,127.0080476,,무료,https://search.pstatic.net/common/?autoRotate=true&quality=100&type=f640_380&src=https%3A%2F%2Fldb-phinf.pstatic.net%2F20190131_210%2F1548871706785f1pCT_JPEG%2FoTsooWi7x9PWUjzQ0ZjsjbW7.jpg,,헌책방      ,02-2272-4013
313,4,동아서점,도봉구,도봉구 덕릉로 253,37.64029729,127.0393961,,무료,https://search.pstatic.net/common/?autoRotate=true&quality=100&type=f640_380&src=https%3A%2F%2Fldb-phinf.pstatic.net%2F20190131_210%2F1548871706785f1pCT_JPEG%2FoTsooWi7x9PWUjzQ0ZjsjbW7.jpg,,새책방      ,02-904-1360
314,4,동아서점,강남구,강남구 압구정로 29길 68,37.53253638,127.0291865,,무료,https://search.pstatic.net/common/?autoRotate=true&quality=100&type=f640_380&src=https%3A%2F%2Fldb-phinf.pstatic.net%2F20190131_210%2F1548871706785f1pCT_JPEG%2FoTsooWi7x9PWUjzQ0ZjsjbW7.jpg,,새책방      ,02-545-0948
315,4,동양서림,종로구,종로구 창경궁로 271-1,37.58556826,127.0006014,,무료,https://mblogthumb-phinf.pstatic.net/MjAxOTA2MTBfMTI2/MDAxNTYwMTY0MDE3Nzgy.dCU6xlfMQe4yt2DvuqdKS77tdbPHVeJqrMaRO2sbgssg.2GdSNhJCMTAMnULeFrXhpE4Hg5Z9nVq3P3Nts7CMKp4g.JPEG.seoul_library/SE-a5e8f851-3a7e-41e2-b478-01882f005b68.jpg?type=w800,https://blog.naver.com/dilek_choi,새책방      ,02-762-0715
316,4,동일서점프라자,금천구,금천구 금하로 771,37.45050633,126.9155489,,무료,https://mblogthumb-phinf.pstatic.net/MjAyMTA1MDRfMyAg/MDAxNjIwMTA0NzU3NjY5.NIyhdsBUGyPsYP1NeOW0dRr7aJUYx-_mlXbbdVp8cPIg.1TLeqblSiEJytH5_hVC3oWW04EKUFn_I0naapK9dpNcg.JPEG.sdmstory/_REE8699.jpg?type=w800,,새책방      ,02-802-7446
317,4,동지서적,종로구,종로구 김상옥로 64-1 여양진씨대종회 회관,37.57336582,127.0048969,,무료,https://map3.daumcdn.net/map_roadview/2022/09/9131677/2_100129_9131677_20220919003100_cube/left_1200.jpg,,새책방      ,02-762-7596
318,4,드림서점,관악구,관악구 은천로25길 27 하우젠빌 104호,37.48794795,126.9493096,,무료,https://mblogthumb-phinf.pstatic.net/MjAxOTA1MTBfMjE2/MDAxNTU3NDU0ODgwNjY4.P1lGA9gkkUz370NZ2mZCdCDDpghAMK6YsADroOMAUvQg.zMCcfjII7VSKGXpj1rFa67e-ravGwv7XzLJGs72xaxog.JPEG.kbcheckcard/2.%EC%B4%88%EC%9B%90%EC%84%9C%EC%A0%90.JPG?type=w800,,새책방      ,02-887-4940
319,4,디자인북,마포구,마포구 동교로 148-8,37.55501333,126.9186372,,무료,"https://image.bookshopmap.com/600,fit,q60/venue/inabooks_15306518_199105787163511_4407194688365264896_n.jpg",http://designbook.co.kr/,새책방      ,02-333-0342
320,4,땡스북스,마포구,마포구 양화로6길 57-6,37.54886806,126.9177079,,무료,https://ak-d.tripcdn.com/images/1i63v223488xjxl2o7131.jpg?proc=source/trip,http://www.thanksbooks.com,새책방      ,02-325-0321
321,4,라이너노트,마포구,마포구 양화로15안길 6,37.55446549,126.9188414,,무료,https://mblogthumb-phinf.pstatic.net/20160621_144/pageturner_kr_1466437993970R8wcG_JPEG/%C0%BD%BE%C7%BC%AD%C1%A1_%B6%F3%C0%CC%B3%CA_%B3%EB%C6%AE.jpg?type=w800,https://smartstore.naver.com/linernote,새책방      ,070-7730-2463
322,4,로우북스,마포구,마포구 포은로 56,37.552386,126.9067828,,무료,https://bookshopmap.s3.ap-northeast-2.amazonaws.com/venue/KakaoTalk_20220102_162543932_23c34a80.jpeg?ver=1641197645,https://lowbooks.notion.site,새책방      ,
323,4,로프 에디션스,마포구,마포구 희우정로16길 50,37.55474866,126.9047167,,무료,https://mblogthumb-phinf.pstatic.net/MjAyMTAzMDlfOTcg/MDAxNjE1Mjk0Njc5MTY3.VlAcWTBy9u02-Rhvm8jlyVQxNq8qdMK-3KoWNsXYjiQg.14sOAXHrDjw8hQezg4TUbr9qwnCR-bX1yybE-jdTrWgg.JPEG.ottff123/SE-22B37272-0C55-4D43-8D18-79E008692343.jpg?type=w800,https://www.instagram.com/ropeeditions/,새책방      ,0507-1325-5519
324,4,로프트북스,종로구,종로구 창의문로 129 2층,37.5923736,126.9659978,,무료,https://storage.heypop.kr/assets/2021/12/02170437/IMG_5462.jpeg,https://brunch.co.kr/@analogcabinet,새책방      ,0507-1310-3225
325,4,마음책방 서가는,종로구,종로구 창경궁로35길 21,37.58698605,127.0017643,,무료,https://mblogthumb-phinf.pstatic.net/MjAxOTA3MTdfMTgz/MDAxNTYzMzYzNDk2Nzky.hkiddVGKUhFXSpGSvhixgpajS66NtscgAfB4zLhwusIg.sPjZypwRrz3ZzxuKiWwxVUYPLaE6RZ8ceGU98VkCsrgg.JPEG.seoul_library/MindstoreS__51.jpg?type=w800,https://smartstore.naver.com/houseinmind,새책방      ,070-8818-0137 
326,4,마이어 날다,용산구,용산구 서빙고로 17 용산센트럴파크 해링턴스퀘어 상가 Mall D 2층 43호,37.52690561,126.9665662,,무료,https://bookshopmap.s3.ap-northeast-2.amazonaws.com/venue/meiernalda.jpeg,https://blog.naver.com/meiernalda,새책방      ,0507-1324-7487
327,4,마이페이브리트,종로구,종로구 자하문로 121 지하 1층,37.58686372,126.9694751,,무료,https://search.pstatic.net/common/?autoRotate=true&quality=100&type=f640_380&src=https%3A%2F%2Fldb-phinf.pstatic.net%2F20230119_32%2F1674117520214dnQGb_JPEG%2F20230119_173732.jpg,http://www.alicesugar.com/,새책방      ,02-544-9319
328,4,마중물서점,송파구,송파구 삼전로 99,37.50726237,127.0901339,,무료,https://mblogthumb-phinf.pstatic.net/MjAyMjAyMjhfMTU0/MDAxNjQ2MDE2MTk1NzI0.K7qT3ZOyzxebBwTG-05kUrQZ_mGbZffGvnfQx7MvuN4g.Z7XDK2JEa46H1y66IebOerA0Df8NwwdhJajAphs4Z24g.JPEG.mijeongchoi/IMG_0783.JPG?type=w800,,새책방      ,02-425-7279
329,4,마포문고,마포구,마포구 큰우물로 60 지하1층,37.54182496,126.9448138,,무료,https://search.pstatic.net/common/?autoRotate=true&quality=100&type=f640_380&src=https%3A%2F%2Fldb-phinf.pstatic.net%2F20171223_24%2F1514011250628HwScO_JPEG%2FiJsbB525pj45Ahbj7pLfx-_h.jpg,https://www.instagram.com/mapomoongo,새책방      ,0507-1315-0066
330,4,만나서적,종로구,종로구 율곡로14길 57,37.57377607,127.0041809,,무료,https://mblogthumb-phinf.pstatic.net/MjAyMzAyMDJfMjE4/MDAxNjc1MjY3MDk5MDk5.wpj8onx9Bjw_JXZgtdRWur5F_xhzw46uVQEcMGmxAWwg.YU7lJF53xbtrEE14EVwOdYwsToG_ARpCyw9iZz_FDR0g.JPEG.bluevisions/%ED%96%87%EB%B9%9B%EB%AC%B8%EA%B3%A0_(4).jpg?type=w800,,새책방      ,02-2267-7385
331,4,만유인력,마포구,손기정로 52,37.55617216,126.9623763,,무료,https://street-h.com/wp-content/uploads/2021/07/manuuillyeok2.jpg,https://blog.naver.com/universalgravity,새책방      ,0507-1328-5935
332,4,만화살롱 유어마나,마포구,마포구 와우산로 13 지하1층,37.54565425,126.9227213,,무료,https://www.your-mana.com/new/assets/images/abouts.jpg,http://www.your-mana.com,새책방      ,02-332-7972 
333,4,매거진랜드,마포구,마포구 잔다리로6길 17 1층,37.55224414,126.9201179,,무료,"https://image.bookshopmap.com/960,fit,q60/venue/magazineland_seoul.jpg?ver=1615968149",http://www.magazineland.co.kr,새책방      ,02-3142-6460
334,4,매일문고,은평구,은평구 서오릉로 133,37.61062883,126.9178217,,무료,https://search.pstatic.net/common/?autoRotate=true&quality=100&type=f640_380&src=https%3A%2F%2Fldb-phinf.pstatic.net%2F20191217_234%2F1576562341964oYlxP_JPEG%2FpyWXQYrr5Wxpy-bmARKMPX4I.jpg,,새책방      ,02-355-0262
335,4,메종인디아 트래블앤북스,서초구,서초구 방배로23길 31-43,37.48508984,126.9922195,,무료,https://mblogthumb-phinf.pstatic.net/MjAxOTExMThfNDUg/MDAxNTc0MDQ2NTQ5MDI2.Q89B-9-mHxJBbuEBqCegMIPBLehzwU54mp-0cNtyZDIg.T6vqSYLOeRgRWBWz8F1Csp8kaWpo_lRb9KofwcE4Sxgg.JPEG.seoul_library/SE-e2352d8c-d50b-4f0f-9a08-3a0646b5654b.jpg?type=w800,http://www.maisonindia.co.kr,새책방      ,0507-1314-1045
336,4,명동문고,중구,서울 중구 명동길 66,37.56392941,126.9860336,,무료,https://mblogthumb-phinf.pstatic.net/MjAyMjAxMDNfMjc4/MDAxNjQxMjE4MzczNTgz.hT11Cg8WO0jfZrL0n4CSjeoh9K0VyFQmHkboGFtB6IYg.l_jd4nM8t-0N9b5CS_tf7s3lRjdvr5d6OxTR_zRk77wg.JPEG.popo626/output_1715288862.jpg?type=w800,,새책방      ,02-752-2015
337,4,명지서점,서대문구,서대문구 가좌로 120,37.58322713,126.9255128,,무료,https://search.pstatic.net/common/?autoRotate=true&quality=100&type=f640_380&src=https%3A%2F%2Fldb-phinf.pstatic.net%2F20150831_190%2F1440994930591ppflF_JPEG%2F106478417979247_0.jpg,,새책방      ,02-305-6467
338,4,모닝책서점(모닝글로리),도봉구,도봉구 시루봉로 67,37.65683757,127.0275781,,무료,https://search.pstatic.net/common/?autoRotate=true&quality=100&type=f640_380&src=https%3A%2F%2Fldb-phinf.pstatic.net%2F20150901_246%2F1441037078599NVKlR_JPEG%2F166176614469938_0.jpg,,새책방      ,02-956-9227
339,4,목동문고,양천구,양천구 목동서로 400 10단지아파트 A상가 지하 1층,37.51500506,126.8580457,,무료,https://bookshopmap.s3.ap-northeast-2.amazonaws.com/venue/02.jpeg?ver=1625463385,http://www.mokdongbs.com/,새책방      ,0507-1389-3070
340,4,무아레 서점,동대문구,천호대로89길 9 2층,37.56228522,127.0680643,,무료,"https://image.bookshopmap.com/600,fit,q60/venue/moire_books_244456481_1580883902250978_1813600475592035157_n.webp.jpg?ver=1635050742",https://www.instagram.com/moire_books,새책방      ,0507-1307-7656
341,4,무엇보다 책방,송파구,송파구 백제고분로 45길 30 미석빌딩 305호 ,37.51049471,127.1084796,,무료,https://bookshopmap.s3.ap-northeast-2.amazonaws.com/venue/more.than_anything_117266898_2764178720526910_819908212761538129_n.jpg,https://smartstore.naver.com/morethananthing,새책방      ,0507-1398-1880
342,4,문학살롱 초고,마포구,독막로2길 30,37.54727401,126.9142783,,무료,"https://mp-seoul-image-production-s3.mangoplate.com/80444_1640821611961849.jpg?fit=around|512:512&crop=512:512;*,*&output-format=jpg&output-quality=80",https://www.instagram.com/chogo_seoul,새책방      ,02-332-7579
343,4,문화공간 길담,종로구,종로구 자하문로17길 12-9,37.58173442,126.9696777,,무료,https://blog.kakaocdn.net/dn/YYtMv/btrd1xYNdP3/QkP58PqSucfA4myoOKdtjk/img.jpg,https://cafe.naver.com/gildamspace,새책방      ,02-722-1368
344,4,문화문고,서대문구,서대문구 간호대로 4,37.59663765,126.9490122,,무료,https://search.pstatic.net/common/?autoRotate=true&quality=100&type=f640_380&src=https%3A%2F%2Fldb-phinf.pstatic.net%2F20190206_119%2F1549431229867VfMt7_JPEG%2F6fL5dI3A6YqlhNqlhpIkrN9B.jpg,https://munhwamungo.modoo.at,새책방      ,02-395-4097
345,4,뭐든지 책방,종로구,종로구 창신길 119,37.57669052,127.0100096,,무료,https://search.pstatic.net/common/?autoRotate=true&quality=100&type=f640_380&src=https%3A%2F%2Fldb-phinf.pstatic.net%2F20210820_217%2F1629429159384jQhUN_JPEG%2FRVZhbgpPrj94kat3_YoH_Ss_.jpg,https://blog.naver.com/mordeunji,새책방      ,02-766-3581
346,4,미스터리 유니온,서대문구,서대문구 이화여대길 88-11,37.55935841,126.9437109,,무료,"https://image.bookshopmap.com/600,fit,q60/venue/mysteryunion_bookshop.jpg",https://www.instagram.com/mysteryunionbook,새책방      ,02-6080-7040
347,4,민중서림,중구,중구 청계천로 274 다14호,37.56942586,127.0080476,,무료,https://cdn.newspost.kr/news/photo/201603/46927_51939_4246.jpg,,헌책방      ,02-2265-3314
348,4,믿음문고,서초구,서초구 양재천로 95-4,37.47619357,127.0395963,,무료,"https://image.bookshopmap.com/960,fit,q60/venue/%E1%84%86%E1%85%B5%E1%86%AE%E1%84%8B%E1%85%B3%E1%86%B7%E1%84%86%E1%85%AE%E1%86%AB%E1%84%80%E1%85%A9-md.jpg?",https://smartstore.naver.com/fflbooks,새책방      ,0507-1332-8248
349,4,바람길,중랑구,중랑구 망우로 332,37.59700674,127.0892755,,무료,"https://image.bookshopmap.com/600,fit,q60/venue/baramgilbooks_18580844_1362787463812500_8696973870030127104_n.jpg",http://www.facebook.com/baramgilbooks,새책방      ,02-434-6449
350,4,밝은책방,관악구,관악구 봉천로 540-1 2층,37.47838571,126.9577682,,무료,https://mblogthumb-phinf.pstatic.net/MjAyMjA5MjRfNTgg/MDAxNjY0MDI5MDExMTUw.tWvks4SGINKmWuQZRhLYdCxNax3PwwzFHrAxw6Yd95kg.gzCx2n1iOkUbMfMY0rtMATKHjtNHbm5rQmIznFMu76Ug.JPEG.tmddk778/1664029009562.jpg?type=w800,https://linktr.ee/brightbooks_law,새책방      ,0507-1388-6511
351,4,밤의서점,서대문구,서대문구 성산로 309-51,37.56671359,126.9240556,,무료,https://mblogthumb-phinf.pstatic.net/MjAxNzExMDhfMTk2/MDAxNTEwMDY5MzA4NjM5.MhqxCEGFTsL9bfbw7WL7H8gTf4N0ySrgdVCX4cJX38Eg.4S3rU9VRPy7bM9oje4q94dADvPr9bcpBUf6MPeQO5iEg.JPEG.yeji7321/image_7359585931510069218127.jpg?type=w800,https://smartstore.naver.com/nightbookstore,새책방      ,
352,4,배화우리서점,종로구,종로구 필운대로1길 31,37.57777837,126.9677399,,무료,"https://image.bookshopmap.com/960,fit,q60/venue/%E1%84%8B%E1%85%AE%E1%84%85%E1%85%B5%E1%84%89%E1%85%A5%E1%84%8C%E1%85%A5%E1%86%B71.jpg?ver=1642049507",,새책방      ,02-738-9184
353,4,번동문고,강북구,강북구 오현로 191 지하1층,37.62882043,127.0391947,,무료,https://search.pstatic.net/common/?autoRotate=true&quality=100&type=f640_380&src=https%3A%2F%2Fldb-phinf.pstatic.net%2F20200524_213%2F1590310570908JKiau_JPEG%2FkVhKv0enY8VxQ4o_xtizcEzL.jpg,,새책방      ,02-981-8425
354,4,법문서적,관악구,신림로23길 16 2층,37.47048117,126.9344768,,무료,https://dnvefa72aowie.cloudfront.net/business-profile/bizPlatform/profile/13945477/1672459718994/Njc3ZjIzOGIyZGMxNTk4Y2EwNjZiOGQ2YWY5YTAwOWRjZmYyMDlmNjQwN2ExNmMxNjMzMzE3ZjA4NWNlYjU2YS5qcGc=.jpeg?q=95&s=1440x1440&t=inside,http://www.bubmoon.com,새책방      ,02-882-3333
355,4,별책방(구예스서점),서대문구,서대문구 거북골로20길 71 창경빌딩 지하1층,37.58107104,126.9112801,,무료,https://mblogthumb-phinf.pstatic.net/MjAyMTA5MTVfMjc5/MDAxNjMxNjkwMDcxNDE0.DRih4ry8puaEqdkxJFM2E55dTQGxcMNHZ51CDTnj9VIg.437MAf20dLTQ311-grojvJanVJHnJaIXVrvHhpXzqM8g.JPEG.simmir76/KakaoTalk_20210915_153922973_02.jpg?type=w800,,새책방      ,0507-1317-0139
356,4,별책부록,용산구,용산구 신흥로16길 7,37.54493118,126.9869973,,무료,"https://image.bookshopmap.com/600,fit,q60/venue/BC777A64-A8DB-4BEB-B01C-2D58E70DC1EC.JPG?ver=1624955073",https://www.byeolcheck.kr,새책방      ,070-4007-6690
357,4,보안책방,종로구,종로구 효자로 33 2층,37.57911789,126.9736303,,무료,"https://image.bookshopmap.com/600,fit,q60/venue/boanbooks_72579245_545251769608887_3960226961292654623_n.jpg",http://b1942.com,새책방      ,02-720-8409
358,4,본동서적,금천구,금천구 금하로 631-7,37.45514372,126.9012035,,무료,https://search.pstatic.net/common/?autoRotate=true&quality=100&type=f640_380&src=https%3A%2F%2Fldb-phinf.pstatic.net%2F20210310_161%2F1615340996061LIlso_PNG%2FfMELe4YkJp5LytYupGkk15Rs.png,,새책방      ,02-893-0158
359,4,부비프,성북구,성북구 보문로30가길 31,37.58926091,127.0214972,,무료,https://mblogthumb-phinf.pstatic.net/MjAyMDA3MDlfMTQy/MDAxNTk0MjY0NjU0MDkz.vToHg6CHvNh4e-Zk2wYXn0CcXdjGx26-hQmBG70zeIcg.uYEGiv_FIH2KenMjwZeG0NIfDrRAripvGOJG3V71rAUg.JPEG.storysb/504310C2-45F7-4009-941B-E20197D93466.jpeg?type=w800,https://www.instagram.com/buvif.bookshop,새책방      ,
